id,ident,type,name,latitude_deg,longitude_deg,elevation_ft,continent,iso_country,iso_region,municipality,iata_code
4650,03N,small_airport,Utirik Airport,11.222,169.852005,4.0,OC,MH,MH-UTI,Utirik Island,UTK
6924,07FA,small_airport,Ocean Reef Club Airport,25.325399398804,-80.274803161621,8.0,,US,US-FL,Key Largo,OCA
7063,0AK,small_airport,Pilot Station Airport,61.934601,-162.899994,305.0,,US,US-AK,Pilot Station,PQS
7139,0CO2,small_airport,Crested Butte Airpark,38.851918,-106.928341,8980.0,,US,US-CO,Crested Butte,CSE
7545,0TE7,small_airport,LBJ Ranch Airport,30.251800537100003,-98.6224975586,1515.0,,US,US-TX,Johnson City,JCY
7866,13Z,seaplane_base,Loring Seaplane Base,55.601299,-131.636993,,,US,US-AK,Loring,WLR
7977,16A,small_airport,Nunapitchuk Airport,60.905591,-162.440454,12.0,,US,US-AK,Nunapitchuk,NUP
7994,16K,seaplane_base,Port Alice Seaplane Base,55.803,-133.597,0.0,,US,US-AK,Port Alice,PTC
8126,19AK,small_airport,Icy Bay Airport,59.966269,-141.660118,50.0,,US,US-AK,Icy Bay,ICY
8159,19P,seaplane_base,Port Protection Seaplane Base,56.328800201416,-133.61000061035,0.0,,US,US-AK,Port Protection,PPV
8383,1KC,small_airport,Kalakaket Creek AS Airport,64.4166256967,-156.820392609,1598.0,,US,US-AK,Kalakaket Creek,KKK
8566,1O6,small_airport,Dunsmuir Muni-Mott Airport,41.263199,-122.272003,3258.0,,US,US-CA,Dunsmuir,MHS
8753,1XA2,small_airport,Chase Field Industrial Airport,28.362444,-97.661917,190.0,,US,US-TX,Beeville,NIR
8774,1Z1,small_airport,Grand Canyon Bar Ten Airstrip,36.258614,-113.231159,4100.0,,US,US-AZ,Littlefield,GCT
8775,1Z9,seaplane_base,Ellamar Seaplane Base,60.893818,-146.704038,0.0,,US,US-AK,Ellamar,ELW
9287,2AK,small_airport,Lime Village Airport,61.3591003418,-155.440002441,552.0,,US,US-AK,Lime Village,LVD
9294,2AK6,small_airport,Hog River Airport,66.2161026,-155.6690063,534.0,,US,US-AK,Hogatza,HGZ
20770,2IG4,small_airport,Ed-Air Airport,38.851782,-87.49987,426.0,,US,US-IN,Oaktown,OTN
9485,2K5,small_airport,Telida Airport,63.393901824951,-153.26899719238,650.0,,US,US-AK,Telida,TLF
9776,2TE0,small_airport,Eagle Air Park,28.982200622559,-95.579696655273,15.0,,US,US-TX,Brazoria,BZT
9902,2Z1,seaplane_base,Entrance Island Seaplane Base,57.412201,-133.43848,0.0,,US,US-AK,Entrance Island,HBH
9906,2Z6,seaplane_base,False Island Seaplane Base,57.5321998596,-135.212997437,,,US,US-AK,False Island,FAK
10309,38WA,small_airport,Blakely Island Airport,48.578998565700005,-122.825996399,66.0,,US,US-WA,Blakely Island,BYW
10366,3AK5,small_airport,Drift River Airport,60.5889015198,-152.162002563,30.0,,US,US-AK,Kenai,DRF
10532,3IS8,small_airport,Rinkenberger Restricted Landing Area,41.2308998108,-89.61569976810001,808.0,,US,US-IL,Bradford,BDF
10856,3VS,small_airport,Roy Otten Memorial Airfield,38.427799224854,-92.875198364258,1030.0,,US,US-MO,Versailles,VRS
10905,3Z8,seaplane_base,Golden Horn Lodge Seaplane Base,59.7470016479,-158.875,91.0,,US,US-AK,Golden Horn Lodge,GDH
11318,4A2,small_airport,Atmautluak Airport,60.866699,-162.272996,17.0,,US,US-AK,Atmautluak,ATT
11320,4AK,small_airport,Livengood Camp Airport,65.467,-148.6534,425.0,,US,US-AK,Livengood,LIV
11485,4K0,small_airport,Pedro Bay Airport,59.7896003723,-154.12399292,45.0,,US,US-AK,Pedro Bay,PDB
11487,4K5,small_airport,Ouzinkie Airport,57.942094,-152.464314,55.0,,US,US-AK,Ouzinkie,KOZ
11488,4KA,small_airport,Tununak Airport,60.575500488281,-165.27200317383,14.0,,US,US-AK,Tununak,TNK
11820,4Z7,seaplane_base,Hyder Seaplane Base,55.903324,-130.009975,,,US,US-AK,Hyder,WHD
11900,51Z,small_airport,Minto Al Wright Airport,65.1437,-149.369995,460.0,,US,US-AK,Minto,MNT
12114,57A,seaplane_base,Tokeen Seaplane Base,55.9370994568,-133.32699585,,,US,US-AK,Tokeen,TKI
12243,5A8,medium_airport,Aleknagik / New Airport,59.2826004028,-158.617996216,66.0,,US,US-AK,Aleknagik,WKK
12429,5KE,seaplane_base,Ketchikan Harbor Seaplane Base,55.349899,-131.677002,,,US,US-AK,Ketchikan,WFB
12560,5NK,small_airport,Naknek Airport,58.735633,-157.02216,70.0,,US,US-AK,Naknek,NNK
12764,5Z9,seaplane_base,Lake Brooks Seaplane Base,58.554798126221,-155.77699279785,36.0,,US,US-AK,Katmai National Park,BKF
12995,65LA,small_airport,Southern Seaplane Airport,29.866078,-90.021608,,,US,US-LA,Belle Chasse,BCS
13208,6CA3,heliport,Catalina Air-Sea Terminal Heliport,33.7491989136,-118.275001526,5.0,,US,US-CA,San Pedro,SPQ
13405,6N5,heliport,East 34th Street Heliport,40.74259948730469,-73.97209930419922,10.0,,US,US-NY,New York,TSS
13407,6N7,seaplane_base,New York Skyports Inc Seaplane Base,40.735061,-73.972814,,,US,US-NY,New York,QNY
13485,6OK6,small_airport,Earl Henry Airport,36.7958984375,-97.3170013428,1054.0,,US,US-OK,Blackwell,BWL
13974,78K,seaplane_base,Yes Bay Lodge Seaplane Base,55.9163017273,-131.800994873,,,US,US-AK,Yes Bay,WYB
13997,78WA,small_airport,Center Island Airport,48.4901008606,-122.832000732,115.0,,US,US-WA,Center Island,CWS
14173,7KA,small_airport,Tatitlek Airport,60.871449,-146.690297,62.0,,US,US-AK,Tatitlek,TEK
14270,7NC2,small_airport,Pine Island Airport,36.2535018921,-75.7884979248,16.0,,US,US-NC,Corolla,DUF
14453,7WA5,small_airport,Stuart Island Airpark,48.673379,-123.175439,10.0,,US,US-WA,Friday Harbor,SSW
14559,82CL,small_airport,Fort Bragg Airport,39.472445,-123.795319,71.0,,US,US-CA,Fort Bragg,FOB
14620,83Q,seaplane_base,Port of Poulsbo Marina Moorage Seaplane Base,47.734001159668,-122.64700317383,0.0,,US,US-WA,Poulsbo,PUL
14633,84CL,heliport,Century City Heliport,34.060798645,-118.417999268,473.0,,US,US-CA,Los Angeles,CCD
14642,84K,seaplane_base,Meyers Chuck Seaplane Base,55.7396011353,-132.255004883,0.0,,US,US-AK,Meyers Chuck,WMK
19113,89NY,small_airport,Maxson Airfield,44.312002,-75.90034,340.0,,US,US-NY,Alexandria Bay,AXB
15267,8XS8,small_airport,Reese Airpark,33.590301513672,-102.03700256348,3338.0,,US,US-TX,Lubbock,REE
15300,90WA,small_airport,Waldron Airstrip,48.7118,-123.017998,140.0,,US,US-WA,Eastsound,WDN
15514,96Z,seaplane_base,Whale Pass Seaplane Float Harbor Facility,56.116299,-133.121994,0.0,,US,US-AK,Whale Pass,WWP
15640,9A3,small_airport,Chuathbaluk Airport,61.579102,-159.216003,244.0,,US,US-AK,Chuathbaluk,CHU
15641,9A8,small_airport,Ugashik Airport,57.523476,-157.396344,25.0,,US,US-AK,Ugashik,UGS
15836,9N2,seaplane_base,Philadelphia Seaplane Base,39.859001159668,-75.299598693848,0.0,,US,US-PA,Essington,PSQ
16069,9Z8,small_airport,Levelock Airport,59.12606,-156.860906,39.0,,US,US-AK,Levelock,KLL
16074,A23,seaplane_base,Saginaw Seaplane Base,56.8862991333,-134.158004761,0.0,,US,US-AK,Saginaw Bay,SGW
16082,A61,small_airport,Tuntutuliak Airport,60.3353004456,-162.667007446,16.0,,US,US-AK,Tuntutuliak,WTL
16083,A63,small_airport,Twin Hills Airport,59.07559967041,-160.27299499512,82.0,,US,US-AK,Twin Hills,TWA
16089,A79,small_airport,Chignik Lake Airport,56.2550010681,-158.774993896,50.0,,US,US-AK,Chignik Lake,KCQ
324756,AAD,small_airport,Adado Airport,6.095802,46.6375,1001.0,AF,SO,SO-GA,Adado,AAD
301645,ABP,small_airport,Atkamba Airport,-6.06462,141.095173,150.0,OC,PG,PG-WPD,Atkamba Mission,ABP
41025,ACM,small_airport,Arica Airport,-2.144851,-71.758389,316.0,,CO,CO-AMA,Arica,ACM
301695,ADC,small_airport,Andakombe Airport,-7.13722222222,145.744722222,3600.0,OC,PG,PG-EHG,Andekombe,ADC
309426,ADV,small_airport,El Daein Airport,11.4023,26.1186,1560.0,AF,SD,SD-DE,El Daein,ADV
313546,AE-0006,seaplane_base,Jebel Ali Seaplane Base,24.988967,55.023796,0.0,AS,AE,AE-DU,Jebel Ali,DJH
300307,AEE,small_airport,Adareil Airport,10.053611,32.959444,1301.0,AF,SS,SS-23,Adar,AEE
299319,AEK,small_airport,Aseki Airport,-7.35080485552,146.19386673,4106.0,OC,PG,PG-MPL,Aseki,AEK
330359,AEQ,small_airport,Ar Horqin Airport,43.87042,120.15958,1335.0,AS,CN,CN-15,Chifeng,AEQ
332240,AF-0005,medium_airport,Khost International Airport,33.284605,69.80734,4204.0,AS,AF,AF-KHO,Khost,KHT
35364,AF10,small_airport,Orūzgān Airport,32.9029998779,66.630897522,6725.0,AS,AF,AF-ORU,Orūzgān,URZ
35365,AF11,small_airport,Salerno Airport,33.3638,69.9561,3780.0,AS,AF,AF-KHO,Khost,OLR
309041,AFK,seaplane_base,Kondavattavana Tank Seaplane Base,7.284,81.644,95.0,AS,LK,LK-5,Ampara,AFK
301665,AFR,small_airport,Afore Airstrip,-9.14222222222,148.390833333,2500.0,OC,PG,PG-NPP,,AFR
301649,AGAF,small_airport,Afutara Aerodrome,-9.19138888889,160.948611111,23.0,OC,SB,SB-ML,Bila,AFT
302290,AGAR,small_airport,Ulawa Airport,-9.86054358262,161.979546547,40.0,OC,SB,SB-MK,Arona,RNA
35172,AGAT,small_airport,Uru Harbour Airport,-8.87333,161.011002,,OC,SB,SB-ML,Atoifi,ATD
32570,AGBA,small_airport,Barakoma Airport,-7.912779808044434,156.70599365234375,,OC,SB,SB-WE,Barakoma,VEV
31524,AGEV,small_airport,Geva Airport,-7.575829982757568,156.5970001220703,,OC,SB,SB-WE,Liangia,GEF
301650,AGG,small_airport,Angoram Airport,-4.05583333333,144.073888889,75.0,OC,PG,PG-ESW,Angoram,AGG
30634,AGGA,small_airport,Gwaunaru'u Airport,-8.70257,160.682007,5.0,OC,SB,SB-ML,Auki,AKS
302047,AGGB,small_airport,Bellona/Anua Airport,-11.3022222222,159.798333333,60.0,OC,SB,SB-RB,Anua,BNY
302291,AGGC,small_airport,Choiseul Bay Airport,-6.711944,156.396111,,OC,SB,SB-CH,,CHY
30678,AGGE,small_airport,Ballalae Airport,-6.990745,155.886656,5.0,OC,SB,SB-WE,Ballalae,BAS
35167,AGGF,small_airport,Fera/Maringe Airport,-8.1075,159.576996,,OC,SB,SB-IS,Fera Island,FRE
3,AGGH,large_airport,Honiara International Airport,-9.428,160.054993,28.0,OC,SB,SB-GU,Honiara,HIR
31885,AGGI,small_airport,Babanakira Airport,-9.7475004196167,159.83900451660156,,OC,SB,SB-GU,Mbambanakira,MBU
301837,AGGJ,small_airport,Avu Avu Airport,-9.86833333333,160.410555556,25.0,OC,SB,SB-GU,,AVU
31686,AGGK,small_airport,Ngorangora Airport,-10.4497003555,161.897994995,54.0,OC,SB,SB-MK,Kirakira,IRA
32275,AGGL,small_airport,Santa Cruz/Graciosa Bay/Luova Airport,-10.72029972076416,165.7949981689453,18.0,OC,SB,SB-TE,Santa Cruz/Graciosa Bay/Luova,SCZ
4,AGGM,medium_airport,Munda Airport,-8.32797,157.263,10.0,OC,SB,SB-WE,Munda,MUA
31563,AGGN,small_airport,Nusatupe Airport,-8.09778022766,156.863998413,13.0,OC,SB,SB-WE,Gizo,GZO
31932,AGGO,small_airport,Mono Airport,-7.416940212249756,155.56500244140625,,OC,SB,SB-WE,Stirling Island,MNY
32174,AGGP,small_airport,Parasi Airport,-9.64167022705078,161.4250030517578,,OC,SB,SB-ML,Parasi,PRS
35171,AGGR,small_airport,Rennell/Tingoa Airport,-11.533900260925291,160.06300354003906,,OC,SB,SB-RB,Rennell Island,RNL
30989,AGGS,small_airport,Sege Airport,-8.578889846801758,157.87600708007812,,OC,SB,SB-WE,Sege,EGM
308425,AGGT,small_airport,Santa Ana Airport,-10.847994,162.454108,3.0,OC,SB,SB-MK,Santa Ana Island,NNB
32238,AGGU,small_airport,Marau Airport,-9.86166954041,160.824996948,,OC,SB,SB-GU,Marau,RUS
32564,AGGV,small_airport,Suavanao Airport,-7.585559844970703,158.7310028076172,,OC,SB,SB-IS,Suavanao,VAO
302292,AGGY,small_airport,Yandina Airport,-9.092816,159.21841,60.0,OC,SB,SB-CE,Yandina,XYA
301651,AGK,small_airport,Kagua Airport,-6.396388888890001,143.853611111,5350.0,OC,PG,PG-SHM,Kagua,AGK
35169,AGKG,small_airport,Kaghau Airport,-7.3305,157.585,30.0,OC,SB,SB-CH,Kagau Island,KGE
310179,AGKU,small_airport,Kukudu Airport,-8.0262,156.94783,32.0,OC,SB,SB-WE,Kolombangara Island,KUE
308424,AGKW,small_airport,Kwailabesi Airport,-8.360508,160.775127,52.0,OC,SB,SB-ML,Kwailabesi,KWS
301652,AGL,small_airport,Wanigela Airport,-9.3375,149.155555556,53.0,OC,PG,PG-NPP,,AGL
310002,AGNA,small_airport,Nana Airport,-10.6758,162.2049,60.0,OC,SB,SB-MK,Star Harbor,NAZ
35168,AGOK,small_airport,Gatokae Aerodrome,-8.738358,158.202836,70.0,OC,SB,SB-WE,Gatokae,GTA
32211,AGRC,small_airport,Ringi Cove Airport,-8.12639045715332,157.14300537109375,,OC,SB,SB-WE,Ringi Cove,RIN
35170,AGRM,small_airport,Ramata Airport,-8.168060302734375,157.64300537109375,,OC,SB,SB-WE,Ramata,RBV
306999,AGTI,heliport,Tulaghi Heliport,-9.108,160.149166667,3.0,OC,SB,SB-CE,Tulaghi Island,TLG
314491,AGY,small_airport,Argyle Downs Airport,-16.508604,128.922485,407.0,OC,AU,AU-WA,Argyle Downs,AGY
312371,AHJ,medium_airport,Hongyuan Airport,32.53154,102.35224,11600.0,AS,CN,CN-51,Ngawa (Hongyuan),AHJ
299324,AHY,small_airport,Ambatolhy Airport,-20.0158333333,45.535,340.0,AF,MG,MG-U,Ambatolahy,AHY
46170,AIE,small_airport,Aiome Airport,-5.145699978,144.7307003,350.0,OC,PG,PG-MPM,Aiome,AIE
301654,AIH,small_airport,Aiambak Airport,-7.342777777779999,141.2675,90.0,OC,PG,PG-WPD,Aiambak,AIH
299328,AIP,small_airport,Ailinglaplap Airok Airport,7.279422,168.8257,16.0,OC,MH,MH-ALL,Bigatyelang Island,AIC
16108,AK13,small_airport,Chena Hot Springs Airport,65.0518035889,-146.04699707,1195.0,,US,US-AK,Chena Hot Springs,CEX
16120,AK26,small_airport,Solomon State Field,64.5605,-164.4457,25.0,,US,US-AK,Solomon,SOL
16125,AK33,small_airport,Herendeen Bay Airport,55.801399231,-160.899002075,20.0,,US,US-AK,Herendeen Bay,HED
16141,AK49,small_airport,Taylor Airport,65.6792984009,-164.798995972,440.0,,US,US-AK,Taylor,TWE
16149,AK56,seaplane_base,Tikchik Lodge Seaplane Base,59.9631996155,-158.477005005,304.0,,US,US-AK,Tikchik,KTH
16155,AK62,seaplane_base,Naukati Bay Seaplane Base,55.849602,-133.227994,0.0,,US,US-AK,Tuxekan Island,NKI
16165,AK71,small_airport,Point Lonely Short Range Radar Site Airfield,70.911118,-153.237766,17.0,,US,US-AK,Point Lonely,LNI
16169,AK75,small_airport,Candle 2 Airport,65.907699585,-161.925994873,15.0,,US,US-AK,Candle,CDL
16174,AK81,seaplane_base,Amook Bay Seaplane Base,57.4715003967,-153.815002441,,,US,US-AK,Amook Bay,AOS
16188,AK97,small_airport,Boswell Bay Airport,60.4230995178,-146.145996094,230.0,,US,US-AK,Boswell Bay,BSW
301754,AKM,small_airport,Zakuoma Airport,10.8902777778,19.8172222222,1370.0,AF,TD,TD-SA,ZaKouma,AKM
16289,ALZ,seaplane_base,Alitak Seaplane Base,56.8995018005,-154.248001099,,,US,US-AK,Lazy Bay,ALZ
45229,AMC,small_airport,Mar de Cortés International Airport,31.351987,-113.305177,71.0,,MX,MX-SON,Puerto Peñasco,PPE
301755,AME,small_airport,Alto Molocue Airport,-15.6102777778,37.6813888889,1950.0,AF,MZ,MZ-Q,Alto Molocue,AME
301676,AMF,small_airport,Ama Airport,-4.10111111111,141.67,145.0,OC,PG,PG-ESW,,AMF
301689,AMU,small_airport,Amanab Airport,-3.586,141.214333333,1307.0,OC,PG,PG-SAN,Amanab,AMU
301758,AMY,small_airport,Ambatomainty Airport,-17.6866666667,45.623888888900005,1025.0,AF,MG,MG-M,,AMY
8,ANYN,medium_airport,Nauru International Airport,-0.547458,166.919006,22.0,OC,NR,NR-14,Yaren District,INU
312361,ANZ,small_airport,Angus Downs Airport,-25.0325,132.2748,1724.0,OC,AU,AU-NT,Angus Downs Station,ANZ
35325,AO-0001,small_airport,Catoca Airport,-9.430985,20.311478,3498.0,AF,AO,AO-LSU,Saurimo,CTV
43971,AO-0005,small_airport,Andulo Airport,-11.4723,16.710899,,AF,AO,AO-BIE,Andulo,ANL
30840,AO-CNZ,small_airport,Cangamba Airport,-13.7106,19.861099,3894.0,AF,AO,AO-MOX,Cangamba,CNZ
43323,AO-DRC,small_airport,Dirico Airport,-17.981924057006836,20.7680606842041,3504.0,AF,AO,AO-CCU,Dirico,DRC
43322,AO-KNP,small_airport,Capanda Airport,-9.76937007904,15.4553194046,3366.0,AF,AO,AO-MAL,Capanda,KNP
43326,AO-NDF,small_airport,N'dalatando Airport,-9.280378,14.982432,2684.0,AF,AO,AO-CNO,N'dalatando,NDF
301705,AOB,small_airport,Annanberg Airport,-4.90416666667,144.635833333,130.0,OC,PG,PG-MPM,,AOB
312362,AOD,small_airport,Abou-Deïa Airport,11.4773,19.2874,1592.0,AF,TD,TD-SA,Abou-Deïa,AOD
301727,APP,small_airport,Asapa Airport,-8.97916666667,148.103611111,1930.0,OC,PG,PG-NPP,,APP
301706,APR,small_airport,April River Airport,-4.67666666667,142.540138889,220.0,OC,PG,PG-ESW,April River,APR
42221,AQ-0002,small_airport,Troll Airfield,-71.95714,2.45257,4167.0,AN,AQ,AQ-U-A,Troll Station,QET
16294,AQY,small_airport,Girdwood-Alyeska Airport,60.968774,-149.119792,150.0,,US,US-AK,Girdwood,AQY
35399,AR-0005,small_airport,Bragado Airport,-35.145811,-60.480294,196.0,SA,AR,AR-B,Bragado,QRF
35401,AR-0007,small_airport,Caleta Olivia Airport,-46.37428,-67.59409,37.0,SA,AR,AR-Z,Caleta Olivia,CVI
35403,AR-0009,small_airport,Charata Airport,-27.2164,-61.2103,318.0,SA,AR,AR-H,Charata,CNT
35404,AR-0010,small_airport,General Villegas Airport,-34.995728,-62.999725,383.0,SA,AR,AR-B,General Villegas,VGS
35405,AR-0011,small_airport,Los Menucos Airport,-40.817699,-68.074699,2571.0,SA,AR,AR-R,Los Menucos,LMD
35412,AR-0017,small_airport,Valcheta Airport,-40.7000007629,-66.1500015259,629.0,SA,AR,AR-R,Valcheta,VCF
39021,AR-0346,small_airport,Sunchales Aeroclub Airport,-30.9575,-61.5283,299.0,SA,AR,AR-S,Sunchales,NCJ
42812,AR-0390,small_airport,Carmen de Patagones Airport,-40.7781,-62.9803,131.0,SA,AR,AR-B,Carmen de Patagones,CPG
42884,AR-0462,small_airport,Termal Airport,-26.753611,-60.492222,308.0,SA,AR,AR-H,Presidencia Roque Sáenz Peña,PRQ
46645,AR-0494,small_airport,Colonia Sarmiento Airport,-45.582371,-68.999841,877.0,SA,AR,AR-U,Sarmiento,OLN
301707,ARP,small_airport,Aragip Airport,-9.88333333333,149.483333333,1750.0,OC,PG,PG-MBA,,ARP
301732,ASZ,small_airport,Asirim Airport,-6.009722222220001,150.368611111,1050.0,OC,PG,PG-WBK,,ASZ
301834,ATN,small_airport,Namatanai Airport,-3.6695,152.438,150.0,OC,PG,PG-NIK,Namatanai,ATN
301672,ATP,small_airport,Aitape Airport,-3.14361111111,142.346805556,10.0,OC,PG,PG-SAN,Aitape,ATP
313838,AU-0081,small_airport,Lady Elliot Island Airstrip,-24.1129,152.7156,20.0,OC,AU,AU-QLD,Lady Elliot Island,LYT
354527,AU-0456,small_airport,Gruyere Airport,-28.034548,123.81506,1542.0,OC,AU,AU-WA,Cosmo Newbery,GYZ
354528,AU-0457,small_airport,Karara Airport,-29.217223,116.687154,1011.0,OC,AU,AU-WA,Karara,KQR
30622,AU-AGW,small_airport,Agnew Airport,-12.1456,142.149369,160.0,OC,AU,AU-QLD,Agnew,AGW
30666,AU-AYD,small_airport,Alroy Downs Airport,-19.2908,136.078995,711.0,OC,AU,AU-NT,Alroy Downs,AYD
30808,AU-BYX,small_airport,Baniyala Airport,-13.1981,136.227005,20.0,OC,AU,AU-NT,Baniyala,BYX
30841,AU-COB,small_airport,Coolibah Airport,-15.548299789428713,130.96200561523438,,OC,AU,AU-NT,Coolibah,COB
30851,AU-CRJ,small_airport,Coorabie Airport,-31.894399642944336,132.29600524902344,,OC,AU,AU-SA,Coorabie,CRJ
30853,AU-CRY,small_airport,Carlton Hill Airport,-15.50189971923828,128.53399658203125,,OC,AU,AU-WA,Carlton Hill,CRY
30855,AU-CSD,small_airport,Cresswell Downs Airport,-17.947999954223633,135.91600036621094,,OC,AU,AU-NT,Cresswell Downs,CSD
30959,AU-DYM,small_airport,Diamantina Lakes Airport,-23.761699676513672,141.14500427246094,,OC,AU,AU-QLD,Diamantina Lakes,DYM
35302,AU-HIS,seaplane_base,Hayman Island Resort Seaplane Base,-20.059999465942383,148.88099670410156,,OC,AU,AU-QLD,Hayman Island,HIS
31606,AU-HLV,small_airport,Helenvale Airport,-15.685799598693848,145.21499633789062,,OC,AU,AU-QLD,Helenvale,HLV
31723,AU-KBD,small_airport,Kimberley Downs Airport,-17.39780044555664,124.3550033569336,,OC,AU,AU-WA,Kimberley Downs,KBD
31745,AU-KGR,small_airport,Kulgera Airport,-25.8428,133.292007,,OC,AU,AU-NT,Ghan,KGR
31995,AU-MYO,small_airport,Camballin Airport,-18.12470054626465,124.27200317382812,,OC,AU,AU-WA,Myroodah,MYO
32109,AU-OKB,small_airport,Orchid Beach Airport,-24.959400177002,153.31500244141,71.0,OC,AU,AU-QLD,Orchid Beach,OKB
32152,AU-PEP,small_airport,Peppimenarti Airport,-14.1442,130.091003,83.0,OC,AU,AU-NT,Peppimenarti,PEP
32201,AU-RDA,small_airport,Rockhampton Downs Airport,-18.95330047607422,135.2010040283203,,OC,AU,AU-NT,Rockhampton Downs,RDA
32384,AU-SSK,small_airport,Sturt Creek Airport,-19.166400909423828,128.1739959716797,,OC,AU,AU-WA,Sturt Creek,SSK
32401,AU-SWB,small_airport,Shaw River Airport,-21.510299682617188,119.36199951171876,,OC,AU,AU-WA,Shaw River,SWB
32474,AU-TPR,small_airport,Tom Price Airport,-22.746000289900003,117.869003296,2300.0,OC,AU,AU-WA,Tom Price,TPR
32486,AU-TWP,small_airport,Torwood Airport,-17.363300323486328,143.75,,OC,AU,AU-QLD,Torwood,TWP
32752,AU-ZVG,small_airport,Springvale Airport,-17.78689956665039,127.66999816894533,,OC,AU,AU-WA,Springvale,ZVG
301735,AUI,small_airport,Aua Island Airport,-1.46055555556,143.064722222,4.0,OC,PG,PG-MRL,Aua Island,AUI
301693,AUJ,small_airport,Ambunti Airport,-4.21566666667,142.823166667,50.0,OC,PG,PG-ESW,Ambunti,AUJ
301668,AUP,small_airport,Agaun Airport,-9.930833,149.385667,3200.0,OC,PG,PG-MBA,,AUP
301737,AUV,small_airport,Aumo Airport,-5.731111111110001,148.445277778,450.0,OC,PG,PG-WBK,Aumo,AUV
301838,AWE,small_airport,Alowe Airport,-0.545,9.444,600.0,AF,GA,GA-3,Wonga Wongué Presidential Reserve,AWE
314558,AXF,medium_airport,Alxa Left Banner Bayanhot Airport,38.74831,105.58858,4560.0,AS,CN,CN-15,Bayanhot,AXF
352222,AXO,small_airport,Pantar Kabir Airport,-8.244832,124.219108,18.0,AS,ID,ID-NT,Kabir,AXO
307980,AYAQ,small_airport,Kompiam Airport,-5.38166666667,143.924722222,5100.0,OC,PG,PG-EPW,,KPM
53,AYBK,medium_airport,Buka Airport,-5.422319889068604,154.67300415039062,11.0,OC,PG,PG-NSB,Buka Island,BUA
311258,AYBR,small_airport,Biaru Airport,-7.6693,146.7594,4900.0,OC,PG,PG-MPL,Biaru,BRP
54,AYCH,medium_airport,Chimbu Airport,-6.024290084838867,144.9709930419922,4974.0,OC,PG,PG-CPK,Kundiawa,CMU
313962,AYDK,small_airport,Munduku Airport,-4.6204,143.4516,100.0,OC,PG,PG-ESW,Munduku,MDM
311717,AYDL,small_airport,Kondobol Airport,-8.5336,142.5049,132.0,OC,PG,PG-WPD,Kondobol,KPF
311110,AYDN,small_airport,Dinangat Airport,-6.1546,146.6772,5309.0,OC,PG,PG-MPL,Dinangat,DNU
311116,AYDO,small_airport,Doini Airport,-10.7009,150.7218,31.0,OC,PG,PG-MBA,Castori Islets,DOI
55,AYDU,medium_airport,Daru Airport,-9.08675956726,143.207992554,20.0,OC,PG,PG-WPD,Daru,DAU
311135,AYEB,small_airport,Embessa Airport,-9.447,148.7628,131.0,OC,PG,PG-NPP,Embessa,EMS
308012,AYED,small_airport,Edwaki Airport,-3.883986,141.792234,190.0,OC,PG,PG-SAN,Yellow River Mission,XYR
311132,AYEL,small_airport,Eliptamin Airport,-5.0412,141.6779,4825.0,OC,PG,PG-SAN,Eliptamin,EPT
311202,AYEN,small_airport,Engati Airstrip,-6.9179,146.1053,3715.0,OC,PG,PG-MPL,Engati,EGA
311200,AYEO,small_airport,Emo River Airstrip,-9.1234,148.0415,2240.0,OC,PG,PG-NPP,Emo Mission,EMO
311205,AYER,small_airport,Erume Airport,-8.2538,146.9747,6690.0,OC,PG,PG-CPM,Erume,ERU
313974,AYES,small_airport,Meselia Airport,-6.1364,149.1183,180.0,OC,PG,PG-WBK,Demgulu,MFZ
311370,AYFE,small_airport,Feramin Airport,-5.208,141.6988,4655.0,OC,PG,PG-SAN,Feramin,FRQ
307757,AYFR,small_airport,Frieda River Airport,-4.610468,141.960138,217.0,OC,PG,PG-ESW,Frieda River,FAQ
311384,AYFU,small_airport,Fuma Airport,-6.3933,142.4408,466.0,OC,PG,PG-WPD,Fuma,FUM
56,AYGA,medium_airport,Goroka Airport,-6.081689834590001,145.391998291,5282.0,OC,PG,PG-EHG,Goronka,GKA
311430,AYGF,small_airport,Guari Airport,-8.1286,146.8722,6450.0,OC,PG,PG-CPM,Guari,GUG
308005,AYGG,small_airport,Garasa Airport,-7.980713,147.213461,2539.0,OC,PG,PG-MPL,Au,GRL
57,AYGN,medium_airport,Gurney Airport,-10.3114995956,150.333999634,88.0,OC,PG,PG-MBA,Gurney,GUR
307709,AYGP,small_airport,Gusap Airport,-6.053196,145.959047,1504.0,OC,PG,PG-MPL,Gusap,GAP
58,AYGR,medium_airport,Girua Airport,-8.80453968048,148.309005737,311.0,OC,PG,PG-NPP,Popondetta,PNP
311386,AYGS,small_airport,Gasuke Airport,-6.1028,141.7393,157.0,OC,PG,PG-WPD,Gasuke,GBC
311468,AYHB,small_airport,Habi Airport,-6.32,142.4893,993.0,OC,PG,PG-WPD,Habi,HBD
311487,AYHE,small_airport,Heiweni Airport,-7.4223,146.4276,3480.0,OC,PG,PG-MPL,Heiweni,HNI
312918,AYHH,small_airport,Honinabi Airport,-6.2457,142.1771,452.0,OC,PG,PG-WPD,Honinabi,HNN
59,AYHK,medium_airport,Hoskins Airport,-5.463846,150.407327,66.0,OC,PG,PG-WBK,Kimbe,HKN
311472,AYHO,small_airport,Haivaro Airport,-6.9406,143.059,180.0,OC,PG,PG-GPK,Haivaro,HIT
312938,AYII,small_airport,Imane Airport,-6.7524,146.1072,3860.0,OC,PG,PG-MPL,Imane,IMN
313419,AYIM,small_airport,Kungim Airport,-5.671,141.03,349.0,OC,PG,PG-WPD,Kungim,KGM
312964,AYIO,small_airport,Imonda Airport,-3.328,141.1573,990.0,OC,PG,PG-SAN,Imonda,IMD
302264,AYIQ,small_airport,Aropa Airport,-6.305417,155.728139,20.0,OC,PG,PG-NSB,Kieta,KIE
312934,AYIU,small_airport,Ialibu Airport,-6.2782,143.9944,6736.0,OC,PG,PG-SHM,Ialibu,IAL
319533,AYIX,small_airport,Witu Airport,-4.689522,149.440112,25.0,OC,PG,PG-WBK,Garove Island,WIU
311794,AYJO,small_airport,Yongai Airport,-8.5289,147.4603,6500.0,OC,PG,PG-CPM,Yongai,KGH
35188,AYKA,small_airport,Losuia Airport,-8.505820274353027,151.08099365234375,27.0,OC,PG,PG-MBA,Losuia,LSA
308795,AYKG,small_airport,Kopiago Airport,-5.3883,142.4977,4445.0,OC,PG,PG-HE,Kopiago,KPA
35185,AYKI,small_airport,Kiunga Airport,-6.1257100105285645,141.28199768066406,88.0,OC,PG,PG-WPD,Kiunga,UNG
308592,AYKJ,small_airport,Kanainj Airport,-5.2903,144.7072,4064.0,OC,PG,PG-MPM,Kanainj,KNE
35184,AYKK,small_airport,Kikori Airport,-7.424379825592041,144.2500762939453,50.0,OC,PG,PG-GPK,Kikori,KRI
60,AYKM,medium_airport,Kerema Airport,-7.96361017227,145.770996094,10.0,OC,PG,PG-GPK,Kerema,KMA
308594,AYKR,small_airport,Kar Kar Airport,-4.557,145.9404,130.0,OC,PG,PG-MPM,Kar Kar Island,KRX
308319,AYKU,small_airport,Kuri Airport,-7.135083,143.276111,35.0,OC,PG,PG-GPK,Kuri,KUQ
61,AYKV,medium_airport,Kavieng Airport,-2.57940006256,150.807998657,7.0,OC,PG,PG-NIK,Kavieng,KVG
31837,AYKY,small_airport,Londolovit Airport,-3.04361009598,152.628997803,167.0,OC,PG,PG-NIK,Londolovit,LNV
312686,AYLB,small_airport,Lab Lab Airport,-5.7204,148.0566,160.0,OC,PG,PG-MPL,Lab Lab Mission,LAB
313841,AYLO,small_airport,Lowai Airport,-6.3344,146.6458,2900.0,OC,PG,PG-MPL,Lowai,LWI
313927,AYLP,small_airport,Leron Plains Airport,-6.3917,146.3434,680.0,OC,PG,PG-MPL,Leron Plains,LPN
313944,AYLS,small_airport,Lese Airport,-8.2799,146.2765,40.0,OC,PG,PG-GPK,Lese,LNG
313946,AYLX,small_airport,Long Island Airport,-5.3604,147.0177,116.0,OC,PG,PG-MPM,Long Island,LSJ
317271,AYM,seaplane_base,Yas Island Seaplane Base,24.467,54.6103,0.0,AS,AE,AE-AZ,Abu Dhabi,AYM
314134,AYMA,small_airport,Manari Airport,-9.1908,147.6219,2630.0,OC,PG,PG-CPM,Manari,MRM
312797,AYMB,small_airport,Morobe Airport,-7.74,147.59,8.0,OC,PG,PG-MPL,Morobe,OBM
62,AYMD,medium_airport,Madang Airport,-5.20707988739,145.789001465,20.0,OC,PG,PG-MPM,Madang,MAG
63,AYMH,medium_airport,Mount Hagen Kagamuga Airport,-5.828212,144.299412,5388.0,OC,PG,PG-WHM,Mount Hagen,HGU
308188,AYML,small_airport,Mougulu Airport,-6.280859,142.420775,825.0,OC,PG,PG-WPD,Mougulu,GUV
64,AYMN,medium_airport,Mendi Airport,-6.14774,143.656998,5680.0,OC,PG,PG-SHM,Mendi,MDU
65,AYMO,medium_airport,Momote Airport,-2.06189,147.423996,12.0,OC,PG,PG-MRL,Manus Island,MAS
31981,AYMR,small_airport,Moro Airport,-6.36332988739,143.238006592,2740.0,OC,PG,PG-SHM,Moro,MXH
31911,AYMS,small_airport,Misima Island Airport,-10.6892004013,152.837997437,26.0,OC,PG,PG-MBA,Misima Island,MIS
308796,AYMW,small_airport,Marawaka Airport,-6.9736,145.8849,6050.0,OC,PG,PG-EHG,Marawaka,MWG
316543,AYNA,small_airport,Nankina Airport,-5.837,146.4533,5800.0,OC,PG,PG-MPM,Gwarawon,NKN
308173,AYNE,small_airport,Negarbo(Negabo) Airport,-6.567778,144.703058,4500.0,OC,PG,PG-CPK,Negarbo,GBF
308139,AYNG,small_airport,Manguna Airport,-5.577778,151.792333,187.0,OC,PG,PG-EBR,Manguna,MFO
311620,AYNM,small_airport,Kasonombe Airport,-6.3819,146.9859,5800.0,OC,PG,PG-MPL,Kasonombe,KSB
308583,AYNO,small_airport,Nomane Airport,-6.32183,145.070667,6032.0,OC,PG,PG-CPK,Namane,NMN
313487,AYNY,small_airport,Nambaiyufa Airport,-6.2412,145.2424,5550.0,OC,PG,PG-CPK,Nambaiyufa,NBA
66,AYNZ,medium_airport,Nadzab Airport,-6.569803,146.725977,239.0,OC,PG,PG-MPL,Lae,LAE
313220,AYOE,small_airport,Konge Airport,-6.2239,147.2152,5900.0,OC,PG,PG-MPL,Konge,KGB
311909,AYOJ,small_airport,Oksapmin Airport,-5.2261,142.2259,5140.0,OC,PG,PG-SAN,Oksapmin,OKP
313218,AYOK,small_airport,Komako Airport,-7.3984,145.8827,3960.0,OC,PG,PG-GPK,Komako,HOC
311706,AYOQ,small_airport,Komaio Airport,-7.2714,143.5952,28.0,OC,PG,PG-GPK,Komaio,KCJ
313288,AYOW,small_airport,Koroba Airport,-5.6952,142.7441,5638.0,OC,PG,PG-HE,Koroba,KDE
331003,AYOY,small_airport,Open Bay Airport,-4.794727,151.696195,33.0,OC,PG,PG-EBR,Maitanakunai,OPB
311954,AYPC,small_airport,Pangoa Airport,-7.0226,141.5605,60.0,OC,PG,PG-WPD,Pangoa,PGB
316621,AYPG,small_airport,Pangia Airport,-6.386,144.1084,5340.0,OC,PG,PG-SHM,Pangia,PGN
312804,AYPO,small_airport,Mapoda Airport,-7.979,143.1694,45.0,OC,PG,PG-WPD,Mapoda,MPF
312000,AYPQ,small_airport,Pumani Airport,-9.7469,149.4766,427.0,OC,PG,PG-MBA,Pumani,PMN
67,AYPY,large_airport,Port Moresby Jacksons International Airport,-9.44338035583496,147.22000122070312,146.0,OC,PG,PG-NCD,Port Moresby,POM
312128,AYQO,small_airport,Sopu Airport,-8.3038,147.1659,6580.0,OC,PG,PG-CPM,Sopu,SPH
312022,AYQS,small_airport,Sialum Airport,-6.0908,147.5955,170.0,OC,PG,PG-MPL,Sialum,SXA
307082,AYRG,small_airport,Rumginae Airport,-5.89722222222,141.271666667,160.0,OC,PG,PG-WPD,,RMN
308137,AYRI,small_airport,Karimui Airport,-6.4921,144.823,3640.0,OC,PG,PG-CPK,Karimui,KMR
313207,AYRM,small_airport,Maramuni Airport,-5.13,143.4829,5160.0,OC,PG,PG-EPW,Maramuni,MWI
311745,AYRV,small_airport,May River Airstrip,-4.3615,141.785,107.0,OC,PG,PG-ESW,May River,MRH
307595,AYSA,small_airport,Suabi Airport,-6.10444444444,142.278333333,465.0,OC,PG,PG-WPD,,SBE
307120,AYSE,small_airport,Simberi Airport,-2.66222222222,151.997777778,10.0,OC,PG,PG-NIK,Simberi Island,NIS
307114,AYSG,small_airport,Sila Airport,-9.07355555556,148.38925,2230.0,OC,PG,PG-NPP,Sila Mission,SIL
312961,AYSH,small_airport,Sabah Airport,-5.5765,155.0489,10.0,OC,PG,PG-NSB,Sabah,SBV
307115,AYSJ,small_airport,Simbai Airport,-5.278611111110001,144.544722222,5804.0,OC,PG,PG-MPM,Simbai,SIM
313471,AYSO,small_airport,Selbang Airport,-5.315,141.752,5130.0,OC,PG,PG-WPD,Selbang,SBC
314638,AYSQ,small_airport,Sepik Plains Airport,-3.8821,143.6734,230.0,OC,PG,PG-ESW,Sepik Plains,SPV
315130,AYSV,small_airport,Sauren Airport,-5.9701,148.8543,46.0,OC,PG,PG-WBK,Sauren,SXW
313953,AYSX,small_airport,Masa Airport,-6.345,147.591,5900.0,OC,PG,PG-MPL,Masa,MBV
32451,AYTA,small_airport,Tari Airport,-5.84499979019,142.947998047,5500.0,OC,PG,PG-HE,Tari,TIZ
32425,AYTB,small_airport,Tabubil Airport,-5.27861,141.225998,1570.0,OC,PG,PG-WPD,Tabubil,TBG
307594,AYTI,small_airport,Tapini Airport,-8.35666666667,146.989166667,3100.0,OC,PG,PG-CPM,Tapini,TPI
68,AYTK,medium_airport,Tokua Airport,-4.34046,152.380005,49.0,OC,PG,PG-EBR,Kokopo,RAB
307593,AYTN,small_airport,Tekin Airport,-5.24366666667,142.165194444,5785.0,OC,PG,PG-SAN,Tekin,TKW
309953,AYTP,small_airport,Tep Tep Airport,-5.9553,146.5595,7011.0,OC,PG,PG-MPM,Teptep,TEP
312313,AYTS,small_airport,Tsewi Airport,-7.0695,146.1272,4185.0,OC,PG,PG-MPL,Tsewi,TSW
312249,AYTT,small_airport,Tarakbits Airport,-5.614,141.0421,281.0,OC,PG,PG-WPD,Tarakbits,TRJ
312256,AYTW,small_airport,Tawa Airport,-7.4463,146.1067,5020.0,OC,PG,PG-MPL,Tawa,TWY
312258,AYTZ,small_airport,Tekadu Airport,-7.6808,146.5503,1310.0,OC,PG,PG-MPL,Tekadu,TKB
301673,AYU,small_airport,Aiyura Airport,-6.33805555556,145.904166667,5355.0,OC,PG,PG-EHG,Aiyura Valley,AYU
312334,AYUC,small_airport,Umba Airport,-7.0214,145.966,5950.0,OC,PG,PG-MPL,Umba,UMC
312379,AYUE,small_airport,Uroubi Airport,-9.5162,148.5591,481.0,OC,PG,PG-NPP,Uroubi,URU
312336,AYUR,small_airport,Upiara Airport,-8.5411,142.6503,52.0,OC,PG,PG-WPD,Upiara,UPR
312427,AYUZ,small_airport,Uvol Airport,-6.0178,150.9557,15.0,OC,PG,PG-EBR,Uvol,UVO
314791,AYVL,small_airport,Talasea Airport,-5.2726,150.0089,44.0,OC,PG,PG-WBK,Talasea,TLW
312309,AYVM,small_airport,Torembi Airport,-4.0165,143.1329,90.0,OC,PG,PG-ESW,Torembi,TCJ
69,AYVN,medium_airport,Vanimo Airport,-2.6926,141.3028,10.0,OC,PG,PG-SAN,Vanimo,VAI
312307,AYVO,small_airport,Tonu Airport,-6.6552,155.4326,300.0,OC,PG,PG-NSB,Tonu,TON
307286,AYWB,small_airport,Wabo Airport,-6.98944444444,145.075111111,132.0,OC,PG,PG-GPK,Wabo,WAO
70,AYWD,medium_airport,Wapenamanda Airport,-5.635293,143.892231,5889.0,OC,PG,PG-EPW,Wapenamanda,WBM
316464,AYWF,small_airport,Wawoi Falls Airport,-6.9523,142.6557,370.0,OC,PG,PG-WPD,Wavoi Falls,WAJ
71,AYWK,medium_airport,Wewak International Airport,-3.58383011818,143.669006348,19.0,OC,PG,PG-ESW,Wewak,WWK
307586,AYWO,small_airport,Wonenara Airport,-6.796861111110001,145.891944444,5028.0,OC,PG,PG-EHG,Wonenara,WOA
320097,AYWQ,small_airport,Wakunai Airport,-5.8603,155.2223,20.0,OC,PG,PG-NSB,Wakunai,WKN
307291,AYWS,small_airport,Wasu Airport,-5.96170944919,147.19822526,34.0,OC,PG,PG-MPL,Wasu,WSU
307247,AYWT,small_airport,Woitape Airport,-8.54583333333,147.2525,5200.0,OC,PG,PG-CPM,Fatima Mission,WTP
307290,AYWU,small_airport,Wau Airport,-7.345556,146.718611,3600.0,OC,PG,PG-MPL,Wau,WUG
311042,AYXE,small_airport,Yeva Airport,-7.548,146.188,4510.0,OC,PG,PG-MPL,Yeva,YVD
312056,AYXI,small_airport,Sim Airport,-7.75,146.9273,5460.0,OC,PG,PG-MPL,Sim,SMJ
316476,AYXW,small_airport,Weam Airport,-8.6184,141.1381,50.0,OC,PG,PG-WPD,Weam,WEP
300786,AYY,seaplane_base,Arugam Bay SPB,6.86,81.82388888890002,,AS,LK,LK-5,Pottuvil,AYY
313341,AYYE,small_airport,Yalumet Airport,-6.09,147.0117,2600.0,OC,PG,PG-MPL,Yalumet,KYX
312469,AYYR,small_airport,Yasuru Airport,-6.6015,146.1813,1520.0,OC,PG,PG-MPL,Yasuru,KSX
315022,AYZM,small_airport,Wasum Airport,-6.0491,149.337,175.0,OC,PG,PG-WBK,Wasum,WUM
44941,AZ-0001,medium_airport,Zabrat Airport,40.4955422161,49.9768066406,36.0,AS,AZ,AZ-BA,Baku,ZXT
44952,AZ-0011,medium_airport,Fuzuli International Airport,39.594578,47.196128,1247.0,AS,AZ,AZ-FUZ,Fuzuli,FZL
16403,AZ15,heliport,Lava Falls Heliport,36.1916007996,-113.092002869,1720.0,,US,US-AZ,Supai Village,HAE
301690,AZB,small_airport,Amazon Bay Airport,-10.2991666667,149.338333333,12.0,OC,PG,PG-CPM,,AZB
349715,AZJ,small_airport,Zhenjiang Dalu Airport,32.23649,119.718683,16.0,AS,CN,CN-32,Zhenjiang,AZJ
301840,BAJ,small_airport,Bali Airport,-4.88333333333,149.133333333,90.0,OC,PG,PG-WBK,Unea Island,BAJ
301858,BCP,small_airport,Bambu Airport,-5.863611111110001,146.4925,6790.0,OC,PG,PG-MPM,Bambu,BCP
27301,BCW,medium_airport,Benguera Island Airport,-21.85330009460449,35.43830108642578,,AF,MZ,MZ-I,Benguera Island,BCW
301872,BCZ,small_airport,Milyakburra Airport,-13.7808333333,136.201666667,85.0,OC,AU,AU-NT,Bickerton Island,BCZ
16495,BDH,small_airport,Willmar Municipal Airport John L Rice Field (2006),45.117552,-95.132259,1126.0,,US,US-MN,Willmar,ILL
301874,BDZ,small_airport,Baindoung Airport,-6.34722222222,146.942222222,4400.0,OC,PG,PG-MPL,,BDZ
31597,BG-HKV,small_airport,Malevo Airport,41.871799469,25.6047992706,600.0,EU,BG,BG-26,Haskovo,HKV
111,BG-JAM,medium_airport,Bezmer Air Base,42.4548988342,26.3521995544,509.0,EU,BG,BG-28,Yambol,JAM
31697,BGAA,medium_airport,Aasiaat Airport,68.721802,-52.784698,74.0,,GL,GL-QK,Aasiaat,JEG
43214,BGAG,heliport,Aappilattoq Heliport,72.88703,-55.596287,42.0,,GL,GL-AV,Aappilattoq,AOQ
42247,BGAM,heliport,Tasiilaq Heliport,65.612296,-37.618335,24.0,,GL,GL-SE,Tasiilaq,AGM
35286,BGAT,heliport,Attu Heliport,67.940663,-53.62187,32.0,,GL,GL-QK,Attu,QGQ
113,BGBW,medium_airport,Narsarsuaq Airport,61.1605,-45.425999,112.0,,GL,GL-KU,Narsarsuaq,UAK
35299,BGCH,heliport,Qasigiannguit Heliport,68.822816,-51.173447,70.0,,GL,GL-QK,Qasigiannguit,JCH
30839,BGCO,small_airport,Neerlerit Inaat Airport,70.743103,-22.650499,45.0,,GL,GL-SE,Neerlerit Inaat,CNP
44052,BGET,heliport,Eqalugaarsuit Heliport,60.61972,-45.914062,9.0,,GL,GL-KU,Eqalugaarsuit,QFG
114,BGGH,medium_airport,Nuuk Airport,64.193022,-51.676512,283.0,,GL,GL-SE,Nuuk,GOH
35300,BGGN,heliport,Qeqertarsuaq Heliport,69.251182,-53.514876,9.0,,GL,GL-QK,Qeqertarsuaq,JGO
43215,BGIA,heliport,Ikerasak Heliport,70.498145,-51.303084,66.0,,GL,GL-AV,Ikerasak,IKE
44054,BGIG,heliport,Iginniarfik Heliport,68.147226,-53.173528,50.0,,GP,GP-U-A,Iginniarfik,QFI
35290,BGIK,heliport,Ikerassaarsuk Heliport,68.140881,-53.441459,165.0,,GL,GL-QK,Ikerassaarsuk,QRY
35291,BGIL,heliport,Ilimanaq Heliport,69.080915,-51.114315,52.0,,GL,GL-AV,Ilimanaq,XIQ
44056,BGIN,heliport,Innarsuit Heliport,73.199895,-56.010817,95.0,,GL,GL-AV,Innarsuit,IUI
44057,BGIS,heliport,Isortoq Heliport,65.547792,-38.976552,92.0,,GL,GL-SE,Isortoq,IOQ
35289,BGIT,heliport,Ikamiut Heliport,68.634253,-51.832262,49.0,,GL,GL-QK,Ikamiut,QJI
35298,BGJH,heliport,Qaqortoq Heliport,60.715684,-46.029919,53.0,,GL,GL-KU,Qaqortoq,JJU
31694,BGJN,small_airport,Ilulissat Airport,69.243202,-51.057098,95.0,,GL,GL-AV,Ilulissat,JAV
35292,BGKA,heliport,Kangaatsiaq Heliport,68.312657,-53.460208,17.0,,GL,GL-QK,Kangaatsiaq,QPW
31786,BGKK,medium_airport,Kulusuk Airport,65.573601,-37.1236,117.0,,GL,GL-SE,Kulusuk,KUS
44060,BGKM,heliport,Kuummiut Heliport,65.863935,-36.997919,89.0,,GL,GL-SE,Kuummiut,KUZ
43218,BGKQ,heliport,Kullorsuaq Heliport,74.57805,-57.226828,148.0,,GL,GL-AV,Kullorsuaq,KHQ
43217,BGKS,heliport,Kangersuatsiaq Heliport,72.381092,-55.536586,112.0,,GL,GL-AV,Kangersuatsiaq,KGQ
35293,BGKT,heliport,Kitsissuarsuit Heliport,68.857926,-53.123295,18.0,,GL,GL-QK,Kitsissuarsuit,QJE
43216,BGLL,heliport,Illorsuit Heliport,71.241944,-53.562877,154.0,,GL,GL-AV,Illorsuit,IOT
31711,BGMQ,small_airport,Maniitsoq Airport,65.412498,-52.9394,91.0,,GL,GL-QA,Maniitsoq,JSU
35294,BGNN,heliport,Nanortalik Heliport,60.141884,-45.232977,17.0,,GL,GL-KU,Nanortalik,JNN
43219,BGNQ,heliport,Nuugaatsiaq Heliport,71.538769,-53.205038,57.0,,GL,GL-AV,Nuugaatsiaq,JUU
35295,BGNS,heliport,Narsaq Heliport,60.917283,-46.059923,83.0,,GL,GL-KU,Narsaq,JNS
44063,BGNT,heliport,Niaqornat Heliport,70.789385,-53.662945,10.0,,GL,GL-AV,Niaqornat,NIQ
43220,BGNU,heliport,Nuussuaq Heliport,74.109853,-57.065037,184.0,,GL,GL-AV,Nuussuaq,NSQ
44065,BGPT,small_airport,Paamiut Airport,62.014736,-49.670937,120.0,,GL,GL-SE,Paamiut,JFR
43221,BGQE,heliport,Qeqertaq Heliport,69.995861,-51.300917,69.0,,GL,GL-AV,Qeqertaq,PQT
32004,BGQQ,small_airport,Qaanaaq Airport,77.488602,-69.388702,51.0,,GL,GL-AV,Qaanaaq,NAQ
44058,BGSC,heliport,Ittoqqortoormiit Heliport,70.488229,-21.97168,238.0,,GL,GL-SE,Ittoqqortoormiit,OBY
115,BGSF,medium_airport,Kangerlussuaq Airport,67.010446,-50.715294,165.0,,GL,GL-QA,Kangerlussuaq,SFJ
44070,BGSI,heliport,Siorapaluk Heliport,77.786517,-70.638657,102.0,,GL,GL-AV,Siorapaluk,SRK
323783,BGSO,heliport,Saarloq Heliport,60.537778,-46.024722,,,GL,GL-KU,Saarloq,QOQ
31700,BGSS,medium_airport,Sisimiut Airport,66.951302,-53.729301,33.0,,GL,GL-QA,Sisimiut,JHS
43222,BGST,heliport,Saattut Heliport,70.811172,-51.63129,131.0,,GL,GL-AV,Saattut,SAE
44068,BGSV,heliport,Savissivik Heliport,76.018613,-65.117683,24.0,,GL,GL-AV,Savissivik,SVR
44075,BGTA,heliport,Tasiusaq Heliport,73.373055,-56.06028,181.0,,GL,GL-AV,Tasiusaq,TQA
116,BGTL,medium_airport,Thule Air Base,76.531197,-68.703201,251.0,,GL,GL-AV,Pituffik,THU
44076,BGTN,heliport,Tiniteqilaaq Heliport,65.892027,-37.783409,15.0,,GL,GL-SE,Tiniteqilaaq,TQI
31713,BGUK,small_airport,Upernavik Airport,72.790199,-56.1306,414.0,,GL,GL-AV,Upernavik,JUV
43225,BGUM,heliport,Uummannaq Heliport,70.680428,-52.11163,50.0,,GL,GL-AV,Uummannaq,UMD
31709,BGUQ,small_airport,Qaarsut Airport,70.7342,-52.696201,289.0,,GL,GL-AV,Uummannaq,JQA
43223,BGUT,heliport,Ukkusissat Heliport,71.049438,-51.890016,223.0,,GL,GL-AV,Ukkusissat,JUK
30705,BHL,small_airport,Bahía de los Ángeles Airport,28.9786,-113.560997,34.0,,MX,MX-BCN,Ensenada,BHL
302410,BHT,small_airport,Brighton Downs Airport,-23.3638888889,141.562777778,390.0,OC,AU,AU-QLD,,BHT
117,BIAR,medium_airport,Akureyri Airport,65.66000366210938,-18.07270050048828,6.0,EU,IS,IS-6,Akureyri,AEY
118,BIBD,small_airport,Bildudalur Airport,65.64129638671875,-23.546199798583984,18.0,EU,IS,IS-4,Bildudalur,BIU
30700,BIBF,small_airport,Borgarfjörður eystri Airport,65.51640319824219,-13.80500030517578,80.0,EU,IS,IS-7,Borgarfjörður eystri,BGJ
30759,BIBK,small_airport,Bakkafjörður Airport,66.02189636230469,-14.824399948120115,14.0,EU,IS,IS-6,Bakkafjörður,BJD
30771,BIBL,small_airport,Hjaltabakki Airport,65.6449966430664,-20.287500381469727,131.0,EU,IS,IS-5,Blönduós,BLO
30789,BIBR,small_airport,Búðardalur Airport,65.07530212402344,-21.80030059814453,131.0,EU,IS,IS-3,Búðardalur,BQD
30807,BIBV,small_airport,Breiðdalsvík Airport,64.790037,-14.043927,8.0,EU,IS,IS-7,Breiðdalsvík,BXV
30922,BIDV,small_airport,Djúpivogur Airport,64.642372,-14.277297,9.0,EU,IS,IS-7,Djúpivogur,DJU
119,BIEG,medium_airport,Egilsstaðir Airport,65.2833023071289,-14.401399612426758,76.0,EU,IS,IS-7,Egilsstaðir,EGS
31058,BIFF,small_airport,Fáskrúðsfjörður Airport,64.931456,-14.047957,15.0,EU,IS,IS-7,Fáskrúðsfjörður,FAS
31041,BIFM,small_airport,Fagurhólsmýri Airport,63.874698638916016,-16.64109992980957,56.0,EU,IS,IS-7,Fagurhólsmýri,FAG
31559,BIGF,small_airport,Grundarfjörður Airport,64.99140167236328,-23.22470092773437,17.0,EU,IS,IS-3,Grundarfjörður,GUU
31531,BIGJ,small_airport,Gjögur Airport,65.99530029296875,-21.32690048217773,83.0,EU,IS,IS-4,Gjögur,GJR
31549,BIGR,small_airport,Grímsey Airport,66.5458,-18.0173,66.0,EU,IS,IS-6,Grímsey,GRY
31656,BIHK,small_airport,Hólmavík Airport,65.70469665527344,-21.696399688720703,90.0,EU,IS,IS-4,Hólmavík,HVK
120,BIHN,medium_airport,Hornafjörður Airport,64.295601,-15.2272,24.0,EU,IS,IS-8,Höfn,HFN
30726,BIHT,small_airport,Holt Airport,66.0141804294,-23.4416913986,10.0,EU,IS,IS-4,Flateyri,FLI
121,BIHU,medium_airport,Húsavík Airport,65.952301,-17.426001,48.0,EU,IS,IS-6,Húsavík,HZK
31657,BIHV,small_airport,Krókstaðarmelar Airport,65.26640319824219,-20.846900939941406,164.0,EU,IS,IS-5,Hvammstangi,HVM
31603,BIID,small_airport,Ingjaldssanður Airport,66.05000305175781,-23.69610023498535,70.0,EU,IS,IS-4,Onundarfjörður,HLO
122,BIIS,medium_airport,Ísafjörður Airport,66.05809783935547,-23.135299682617188,8.0,EU,IS,IS-4,Ísafjörður,IFJ
123,BIKF,large_airport,Keflavik International Airport,63.985001,-22.6056,171.0,EU,IS,IS-2,Reykjavík,KEF
32121,BIKP,small_airport,Kópasker Airport,66.31079864501953,-16.466699600219727,20.0,EU,IS,IS-6,Kópasker,OPA
32246,BIKR,small_airport,Sauðárkrókur Airport,65.73169708249999,-19.5727996826,8.0,EU,IS,IS-5,Sauðárkrókur,SAK
32044,BINF,small_airport,Norðfjörður Airport,65.13189697265625,-13.746399879455566,13.0,EU,IS,IS-7,Norðfjörður,NOR
32096,BIOF,small_airport,Ólafsfjörður Airport,66.08329772949219,-18.66670036315918,32.0,EU,IS,IS-6,Ólafsfjörður,OFJ
124,BIPA,small_airport,Patreksfjörður Airport,65.555801,-23.965,11.0,EU,IS,IS-4,Patreksfjörður,PFJ
32207,BIRE,small_airport,Reykhólar Airport,65.45262908935547,-22.20611572265625,60.0,EU,IS,IS-4,Reykhólar,RHA
30741,BIRF,small_airport,Rif Airport,64.9113998413,-23.8230991364,18.0,EU,IS,IS-3,Rif,OLI
32205,BIRG,small_airport,Raufarhöfn Airport,66.40640258789062,-15.918299674987791,39.0,EU,IS,IS-6,Raufarhöfn,RFN
125,BIRK,medium_airport,Reykjavik Airport,64.1299972534,-21.9405994415,48.0,EU,IS,IS-1,Reykjavik,RKV
31973,BIRL,small_airport,Reykjahlíð Airport,65.65579986572266,-16.918100357055664,1030.0,EU,IS,IS-6,Myvatn,MVA
126,BISI,medium_airport,Siglufjörður Airport,66.137847,-18.908157,10.0,EU,IS,IS-6,Siglufjörður,SIJ
32415,BIST,small_airport,Stykkishólmur Airport,65.05809783935547,-22.7942008972168,42.0,EU,IS,IS-3,Stykkishólmur,SYK
32436,BITE,small_airport,Þingeyri Airport,65.87030029296875,-23.559999465942383,65.0,EU,IS,IS-4,Þingeyri,TEY
127,BITN,small_airport,Þórshöfn Airport,66.218498,-15.3356,65.0,EU,IS,IS-6,Þórshöfn,THO
128,BIVM,medium_airport,Vestmannaeyjar Airport,63.42430114746094,-20.27890014648437,326.0,EU,IS,IS-8,Vestmannaeyjar,VEY
32593,BIVO,small_airport,Vopnafjörður Airport,65.72059631347656,-14.850600242614746,16.0,EU,IS,IS-7,Vopnafjörður,VPN
300790,BJE,small_airport,Baleela Airport,11.1994444444,28.5230555556,1690.0,AF,SD,SD-13,Baleela Base Camp,BJE
300791,BJQ,small_airport,Bahja Airport,19.8730555556,56.0677777778,515.0,AS,OM,OM-WU,Bahja,BJQ
312172,BJT,seaplane_base,Bentota River Waterdrome,6.431,79.996,,AS,LK,LK-1,Bentota,BJT
4614,BKPR,medium_airport,Priština Adem Jashari International Airport,42.5728,21.035801,1789.0,EU,XK,XK-01,Prishtina,PRN
302041,BMH,small_airport,Bomai Airport,-6.37316666667,144.637,3300.0,OC,PG,PG-CPK,Bomai,BMH
28482,BMQ,small_airport,Bamburi Airport,-3.983363,39.730982,52.0,AF,KE,KE-300,Bamburi,BMQ
302044,BMZ,small_airport,Bamu Airport,-7.8485,143.2433,50.0,OC,PG,PG-WPD,Bamu,BMZ
16502,BNF,seaplane_base,Baranof Warm Springs Float and Seaplane Base,57.088799,-134.833146,0.0,,US,US-AK,Baranof,BNF
301975,BNM,small_airport,Bodinumu Airport,-9.10777777778,147.666722222,3700.0,OC,PG,PG-CPM,Bodinumu,BNM
302046,BNT,small_airport,Bundi Airport,-5.742222222220001,145.2275,4400.0,OC,PG,PG-MPM,Bundi,BNT
41591,BO-0001,small_airport,Rurenabaque Airport,-14.4279003143,-67.4968032837,676.0,SA,BO,BO-B,Rurenabaque,RBQ
41590,BO-BVL,small_airport,Baures Airport,-13.5833330154,-63.5833320618,470.0,SA,BO,BO-B,Baures,BVL
16503,BOF,heliport,Bolling Air Force Base,38.854049,-77.012046,20.0,,US,US-DC,Washington,BOF
16504,BOK,small_airport,Brookings Airport,42.0746,-124.290001,459.0,,US,US-OR,Brookings,BOK
301979,BOT,small_airport,Bosset Airport,-7.237257,141.1063222,80.0,OC,PG,PG-WPD,Bosset,BOT
312780,BOV,small_airport,Boang Airport,-3.3834,153.2812,85.0,OC,PG,PG-NIK,Boang Island,BOV
302402,BPF,small_airport,Batuna Aerodrome,-8.56202777778,158.119305556,24.0,OC,SB,SB-WE,Batuna Mission Station,BPF
16505,BQV,seaplane_base,Bartlett Cove Seaplane Base,58.4552001953,-135.884994507,0.0,,US,US-AK,Gustavus,BQV
333222,BR-0569,medium_airport,Glauber de Andrade Rocha Airport,-14.907885,-40.914804,2940.0,SA,BR,BR-BA,Vitória da Conquista,VDC
30637,BR-ALT,small_airport,Alenquer Municipal Airport,-1.917,-54.7231,55.0,SA,BR,BR-PA,Alenquer,ALT
35303,BS-NSB,seaplane_base,Bimini North Seaplane Base,25.767000198364254,-79.25,,,BS,BS-BI,Bimini,NSB
301802,BSP,small_airport,Bensbach Airport,-8.85805555556,141.259444444,30.0,OC,PG,PG-WPD,Bensbach,BSP
302396,BSV,small_airport,Besakoa Airport,-15.6725,47.061667,40.0,AF,MG,MG-M,Besakoa,BSV
353792,BTZ,medium_airport,Betong International Airport,5.79,101.15,761.0,AS,TH,TH-95,Betong,BTZ
46171,BUL,small_airport,Bulolo Airport,-7.216286671410001,146.649541855,2240.0,OC,PG,PG-MPL,Bulolo,BUL
302436,BVR,small_airport,Esperadinha Airport,14.864306,-24.746,64.0,AF,CV,CV-S,Brava Island,BVR
31654,BW-HUK,small_airport,Hukuntsi Airport,-23.9897,21.758101,3720.0,AF,BW,BW-KG,Hukuntsi,HUK
301800,BWJ,small_airport,Bawan Airport,-6.396944444440001,146.881666667,4700.0,OC,PG,PG-MPL,,BWJ
301803,BWP,small_airport,Bewani Airport,-3.0216666666700003,141.165277778,550.0,OC,PG,PG-SAN,Bewani,BWP
302394,BXL,seaplane_base,Blue Lagoon Seaplane Base,-16.943,177.368,0.0,OC,FJ,FJ-W,Nanuya Lailai Island,BXL
310095,BXZ,small_airport,Bunsil Airport,-5.7243,147.8667,201.0,OC,PG,PG-MPL,Bunsil - Umboi Island,BXZ
34946,BY-0001,medium_airport,Orsha Airport - Balbasovo Air Base,54.439999,30.2967,620.0,EU,BY,BY-VI,Orsha,TXC
16506,BYA,small_airport,Boundary Airport,64.0783004761,-141.113006592,2940.0,,US,US-AK,Boundary,BYA
302393,BYL,small_airport,Bella Yella Airport,7.36916666667,-9.99372222222,690.0,AF,LR,LR-LO,Beliyela,BYL
300806,BYV,seaplane_base,Beira Lake Seaplane Base,6.9294444444400005,79.85416666670001,17.0,AS,LK,LK-1,Colombo,BYV
44573,BZ-BCV,small_airport,Hector Silva Airstrip,17.269603,-88.776496,150.0,,BZ,BZ-CY,Belmopan,BCV
42216,BZ-BGK,medium_airport,Big Creek Airport,16.519369,-88.407913,22.0,,BZ,BZ-SC,Big Creek,BGK
30861,BZ-CUK,medium_airport,Caye Caulker Airport,17.735015,-88.032862,2.0,,BZ,BZ-BZ,Caye Caulker,CUK
30867,BZ-CYC,medium_airport,Caye Chapel Airport,17.683792,-88.044985,3.0,,BZ,BZ-BZ,Caye Chapel,CYC
42209,BZ-CZH,medium_airport,Corozal Municipal Airport,18.382200241088867,-88.41190338134766,40.0,,BZ,BZ-CZL,Corozal,CZH
42207,BZ-DGA,medium_airport,Dangriga Airport,16.98251,-88.230988,508.0,,BZ,BZ-SC,Dangriga,DGA
42213,BZ-INB,small_airport,Independence Airport,16.53456,-88.441615,18.0,,BZ,BZ-SC,Independence,INB
42214,BZ-MDB,small_airport,Melinda Airport,17.0042991638,-88.30419921880001,101.0,,BZ,BZ-SC,Melinda,MDB
42212,BZ-ORZ,small_airport,Orange Walk Airport,18.0467662811,-88.58386993410001,111.0,,BZ,BZ-OW,Orange Walk,ORZ
42217,BZ-PLJ,medium_airport,Placencia Airport,16.536956787109375,-88.36151123046875,3.0,,BZ,BZ-SC,Placencia,PLJ
35305,BZ-PND,medium_airport,Punta Gorda Airport,16.102399826,-88.80829620360001,7.0,,BZ,BZ-TOL,Punta Gorda,PND
42210,BZ-SJX,medium_airport,Sartaneja Airport,18.35610008239746,-88.13079833984375,3.0,,BZ,BZ-CZL,Sartaneja,SJX
32370,BZ-SPR,medium_airport,John Greif II Airport,17.9139,-87.9711,4.0,,BZ,BZ-CY,San Pedro,SPR
42218,BZ-SQS,small_airport,Matthew Spain Airport,17.185898,-89.009936,199.0,,BZ,BZ-CY,Spanish Lookout,SQS
42211,BZ-STU,small_airport,Santa Cruz Airport,18.2721004486084,-88.456298828125,18.0,,BZ,BZ-CZL,Santa Cruz,STU
42208,BZ-SVK,small_airport,Silver Creek Airport,16.728338,-88.369174,216.0,,BZ,BZ-SC,Silver Creek,SVK
42215,BZ-TZA,medium_airport,Sir Barry Bowen Municipal Airport,17.517239,-88.195775,8.0,,BZ,BZ-BZ,Belize City,TZA
27300,BZB,medium_airport,Bazaruto Island Airport,-21.5411,35.4729,,AF,MZ,MZ-I,Bazaruto Island,BZB
302391,BZM,small_airport,Bemolanga Airport,-17.6925,45.0888333333,950.0,AF,MG,MG-M,Bemolanga,BZM
39968,CA-0322,small_airport,Saglek Airport,58.474312,-62.653999,269.0,,CA,CA-NL,Saglek,YSV
298628,CA-0446,small_airport,Stuart Island Airstrip,50.4094474336,-125.131616592,360.0,,CA,CA-BC,Big Bay,YRR
299911,CA-0504,small_airport,Mary River Aerodrome,71.324167,-79.356944,584.0,,CA,CA-NU,Mary River,YMV
28174,CAB3,seaplane_base,Bedwell Harbour Seaplane Base,48.75,-123.233001709,0.0,,CA,CA-BC,Bedwell Harbour,YBW
28447,CAB4,seaplane_base,Tofino Harbour Seaplane Base,49.155,-125.91,0.0,,CA,CA-BC,Tofino Harbour,YTP
28332,CAC8,seaplane_base,Nanaimo Harbour Water Airport,49.169813,-123.933845,,,CA,CA-BC,Nanaimo,ZNA
614,CAD4,small_airport,Trail Airport,49.055599,-117.609001,1427.0,,CA,CA-BC,Trail,YZZ
615,CAD5,small_airport,Merritt Airport,50.1227989197,-120.747001648,2080.0,,CA,CA-BC,Merritt,YMB
28187,CAE3,seaplane_base,Campbell River Seaplane Base,50.049999,-125.25,,,CA,CA-BC,Campbell River,YHH
28465,CAE5,seaplane_base,Whistler/Green Lake Water Aerodrome,50.1436004639,-122.948997498,2100.0,,CA,CA-BC,Whistler,YWS
28169,CAE9,seaplane_base,Bamfield Seaplane Base,48.8333015442,-125.133003235,0.0,,CA,CA-BC,Bamfield,YBF
28177,CAF6,seaplane_base,Big Bay Seaplane Base,50.3923,-125.1372,,,CA,CA-BC,Stuart Island,YIG
619,CAG3,small_airport,Chilko Lake (Tsylos Park Lodge) Airport,51.625797,-124.144478,3850.0,,CA,CA-BC,Chilko Lake,CJH
28364,CAG8,seaplane_base,Pender Harbour Seaplane Base,49.623785,-124.024884,,,CA,CA-BC,Sunshine Coast,YPT
28346,CAH2,seaplane_base,Ocean Falls Seaplane Base,52.3666992188,-127.717002869,0.0,,CA,CA-BC,Ocean Falls,ZOF
620,CAH3,small_airport,Courtenay Airpark,49.679237,-124.98064,26.0,,CA,CA-BC,Courtenay,YCA
623,CAJ3,small_airport,Creston Valley Regional Airport - Art Sutcliffe Field,49.03689956665,-116.49800109863,2070.0,,CA,CA-BC,Creston,CFQ
624,CAJ4,medium_airport,Anahim Lake Airport,52.451501,-125.303776,3635.0,,CA,CA-BC,Anahim Lake,YAA
629,CAL3,small_airport,Douglas Lake Airport,50.1654600485,-120.171273351,2770.0,,CA,CA-BC,Douglas Lake,DGF
30592,CAL4,small_airport,Fort MacKay/Albian Aerodrome,57.2238998413,-111.418998718,1048.0,,CA,CA-AB,Albian Village,JHL
28434,CAL9,seaplane_base,Tahsis Seaplane Base,49.9166984558,-126.666999817,0.0,,CA,CA-BC,Tahsis,ZTS
631,CAM3,small_airport,Duncan Airport,48.754534,-123.709702,300.0,,CA,CA-BC,Duncan,DUQ
634,CAP3,small_airport,Sechelt-Gibsons Airport,49.4606018066,-123.71900177,340.0,,CA,CA-BC,Sechelt,YHS
28274,CAP7,seaplane_base,Kitkatla Seaplane Base,53.7999992371,-130.432998657,,,CA,CA-BC,Kitkatla,YKK
28389,CAQ6,seaplane_base,Queen Charlotte City Seaplane Base,53.25282,-132.074214,,,CA,CA-BC,,ZQS
28384,CAQ8,seaplane_base,Powell Lake Seaplane Base,49.8833007812,-124.532997131,183.0,,CA,CA-BC,,WPL
643,CAT4,small_airport,Qualicum Beach Airport,49.3372,-124.393997,191.0,,CA,CA-BC,Qualicum Beach,XQU
644,CAT5,small_airport,Port Mcneill Airport,50.5755996704,-127.028999329,225.0,,CA,CA-BC,Port Mcneill,YMP
28396,CAU8,seaplane_base,Rivers Inlet Seaplane Base,51.683985,-127.264044,,,CA,CA-BC,Rivers Inlet,YRN
28432,CAV5,seaplane_base,Sullivan Bay Seaplane Base,50.885359,-126.831069,0.0,,CA,CA-BC,Sullivan Bay,YTG
28311,CAV7,seaplane_base,Mansons Landing Seaplane Base,50.0666999817,-124.983001709,,,CA,CA-BC,,YMU
28175,CAW8,seaplane_base,Bella Bella/Shearwater Seaplane Base,52.150002,-128.08299,0.0,,CA,CA-BC,Bella Bella,YSX
28235,CAX6,seaplane_base,Ganges Seaplane Base,48.8545,-123.4969,0.0,,CA,CA-BC,Salt Spring Island,YGG
28252,CAY4,seaplane_base,Hartley Bay Seaplane Base,53.416698,-129.25,0.0,,CA,CA-BC,Hartley Bay,YTB
657,CAZ5,medium_airport,Cache Creek-Ashcroft Regional Airport,50.775258,-121.321314,2034.0,,CA,CA-BC,Cache Creek,YZA
664,CBBC,medium_airport,Bella Bella (Campbell Island) Airport,52.185001,-128.156994,141.0,,CA,CA-BC,Bella Bella,ZEL
301825,CBC,small_airport,Cherrabun Airport,-18.917777777800005,125.537777778,540.0,OC,AU,AU-WA,,CBC
717,CBS8,small_airport,Alberni Valley Regional Airport,49.321899,-124.931,250.0,,CA,CA-BC,Port Alberni,YPB
731,CBW4,small_airport,Bob Quinn Lake Airport,56.966702,-130.25,2000.0,,CA,CA-BC,Bob Quinn Lake,YBO
736,CBX5,small_airport,Tungsten (Cantung) Airport,61.956901550293,-128.20300292969,3500.0,,CA,CA-NT,Tungsten,TNS
737,CBX7,small_airport,Tumbler Ridge Airport,55.025001525879,-120.93499755859,3075.0,,CA,CA-BC,Tumbler Ridge,TUX
743,CCA6,small_airport,Williams Harbour Airport,52.567377,-55.784883,70.0,,CA,CA-NL,Williams Harbour,YWM
750,CCD4,small_airport,Postville Airport,54.9105,-59.78507,193.0,,CA,CA-NL,Postville,YSO
752,CCE4,small_airport,Black Tickle Airport,53.469836,-55.787501,57.0,,CA,CA-NL,Black Tickle,YBI
764,CCK4,small_airport,St. Lewis (Fox Harbour) Airport,52.37279891967773,-55.67390060424805,74.0,,CA,CA-NL,St. Lewis,YFX
771,CCP4,small_airport,Port Hope Simpson Airport,52.528099060058594,-56.28609848022461,347.0,,CA,CA-NL,Port Hope Simpson,YHA
793,CCZ2,small_airport,Rigolet Airport,54.1796989440918,-58.45750045776367,180.0,,CA,CA-NL,Rigolet,YRG
814,CDK2,small_airport,Diavik Airport,64.5113983154,-110.289001465,1413.0,,CA,CA-NT,Diavik,DVK
43879,CDL7,small_airport,Doris Lake,68.1252746582,-106.585281372,50.0,,CA,CA-NU,Hope Bay,JOJ
834,CEB5,small_airport,Fairview Airport,56.081401825,-118.434997559,2166.0,,CA,CA-AB,Fairview,ZFW
836,CEC4,small_airport,Jasper-Hinton Airport,53.319199,-117.752998,4006.0,,CA,CA-AB,Hinton,YJP
874,CEM3,small_airport,Whatì Airport,63.13169860839844,-117.24600219726562,882.0,,CA,CA-NT,Whatì,YLE
892,CER3,small_airport,Drayton Valley Industrial Airport,53.265800476074,-114.95999908447,2776.0,,CA,CA-AB,Drayton Valley,YDC
893,CER4,small_airport,Fort McMurray / Mildred Lake Airport,57.0555992126,-111.573997498,1046.0,,CA,CA-AB,Fort McMurray,NML
898,CET2,small_airport,Conklin (Leismer) Airport,55.695301,-111.278999,1930.0,,CA,CA-AB,Conklin,CFM
910,CEW3,small_airport,St. Paul Airport,53.9933013916,-111.379997253,2147.0,,CA,CA-AB,St. Paul,ZSP
925,CFA7,small_airport,Taltheilei Narrows Airport,62.5980987549,-111.542999268,570.0,,CA,CA-NT,Taltheilei Narrows,GSL
933,CFC4,small_airport,Macmillan Pass Airport,63.181098938,-130.20199585,3810.0,,CA,CA-YT,Macmillan Pass,XMP
944,CFF4,small_airport,Great Bear Lake Airport,66.7031021118,-119.707000732,562.0,,CA,CA-NT,Great Bear Lake,DAS
46534,CFG6,small_airport,Fort Mackay / Firebag,57.275833,-110.976666,1762.0,,CA,CA-AB,Suncor Energy Site,YFI
954,CFJ2,small_airport,Wekweètì Airport,64.190804,-114.077002,1208.0,,CA,CA-NT,Wekweètì,YFJ
964,CFM4,small_airport,Donnelly Airport,55.7094,-117.094002,1949.0,,CA,CA-AB,Donnelly,YOE
982,CFQ4,small_airport,Cheadle Airport,51.057498931885,-113.62400054932,3300.0,,CA,CA-AB,Cheadle,TIL
32110,CG-OKG,small_airport,Okoyo Airport,-1.4483300447464,15.073300361633,1415.0,AF,CG,CG-8,Okoyo,OKG
16712,CGA,seaplane_base,Craig Seaplane Base,55.47880172729492,-133.1479949951172,,,US,US-AK,Craig,CGA
46172,CGC,small_airport,Cape Gloucester Airport,-5.458965,148.432417,78.0,OC,PG,PG-WBK,Cape Gloucester,CGC
312504,CGG,small_airport,Casiguran Airport,16.1941,122.0651,48.0,AS,PH,PH-AUR,Casiguran,CGG
44373,CGK2,small_airport,Gahcho Kue,63.435198,-109.144812,1371.0,,CA,CA-NT,,GHK
16713,CHP,small_airport,Circle Hot Springs Airport,65.485496521,-144.610992432,956.0,,US,US-AK,Circle Hot Springs,CHP
312506,CIV,seaplane_base,Chomley Seaplane Base,55.217,-132.21,0.0,,US,US-AK,Chomley,CIV
1058,CJC8,small_airport,Laurie River Airport,56.2486000061,-101.304000854,1200.0,,CA,CA-MB,Laurie River,LRQ
1088,CJL2,small_airport,Hatchet Lake Airport,58.662498474121,-103.53800201416,1362.0,,CA,CA-SK,Hatchet Lake,YDJ
1092,CJL8,small_airport,Kasba Lake Airport,60.291900634766,-102.50199890137,1131.0,,CA,CA-NT,Kasba Lake,YDU
28228,CJN8,seaplane_base,Fort Reliance Seaplane Base,62.7,-109.167,514.0,,CA,CA-NT,Fort Reliance,YFL
1121,CJS3,small_airport,Cluff Lake Airport,58.3911018372,-109.51599884,1112.0,,CA,CA-SK,Cluff Lake,XCL
1126,CJT3,small_airport,Knee Lake Airport,54.915298,-94.798103,625.0,,CA,CA-MB,Knee Lake,YKE
1139,CJV7,small_airport,Summer Beaver Airport,52.70859909057617,-88.54190063476562,832.0,,CA,CA-ON,Summer Beaver,SUR
16716,CJX,small_airport,Crooked Creek Airport,61.8679008484,-158.134994507,178.0,,US,US-AK,Crooked Creek,CKD
1151,CJY3,small_airport,Tisdale Airport,52.836700439453,-104.06700134277,1525.0,,CA,CA-SK,Tisdale,YTT
1162,CKB6,small_airport,Wapekeka Airport,53.84920120239258,-89.57939910888672,712.0,,CA,CA-ON,Angling Lake,YAX
1200,CKL3,small_airport,Wunnumin Lake Airport,52.89390182495117,-89.28919982910156,819.0,,CA,CA-ON,Wunnumin Lake,WNN
1211,CKM8,small_airport,Opapimiskan Lake Airport,52.6067008972,-90.3768997192,1023.0,,CA,CA-ON,Opapimiskan Lake,YBS
1218,CKQ3,small_airport,North Spirit Lake Airport,52.4900016784668,-92.97109985351562,1082.0,,CA,CA-ON,North Spirit Lake,YNO
312535,CKR,small_airport,Crane Island Airstrip,48.5978,-122.9979,108.0,,US,US-WA,Crane Island,CKR
16717,CKU,small_airport,Cordova Municipal Airport,60.5438995361,-145.727005005,12.0,,US,US-AK,Cordova,CKU
1244,CKV4,small_airport,North of Sixty Airport,60.316398620605,-103.12899780273,1195.0,,CA,CA-NT,Obre Lake,YDW
16718,CKX,small_airport,Chicken Airport,64.0712966919,-141.95199585,1640.0,,US,US-AK,Chicken,CKX
316486,CMT,small_airport,New Cametá Airport,-2.2468,-49.56,60.0,SA,BR,BR-PA,Cametá,CMT
311902,CMZ,small_airport,Caia Airport,-17.8331,35.3341,156.0,AF,MZ,MZ-S,Caia,CMZ
43975,CN-0005,small_airport,Tangshan Sannühe Airport,39.7178001404,118.002624512,50.0,AS,CN,CN-13,Tangshan,TVS
44127,CN-0012,medium_airport,Yuanmou Air Base,25.737499,101.882004,3810.0,AS,CN,CN-53,Chuxiong (Yuanmou),YUA
44100,CN-0024,medium_airport,Zhangjiakou Ningyuan Airport,40.738602,114.93,2347.0,AS,CN,CN-13,Zhangjiakou,ZQZ
44103,CN-0027,medium_airport,Baoshan Yunrui Airport,25.053301,99.168297,5453.0,AS,CN,CN-53,Baoshan (Longyang),BSD
44110,CN-0034,small_airport,Dazu Air Base,29.636227,105.773621,1220.0,AS,CN,CN-50,Dazu,DZU
44116,CN-0040,medium_airport,Lincang Boshang Airport,23.7381,100.025002,6230.0,AS,CN,CN-53,Lincang,LNJ
44122,CN-0046,medium_airport,Xigaze Peace Airport / Shigatse Air Base,29.3519,89.311401,3782.0,AS,CN,CN-54,Xigazê (Samzhubzê),RKZ
44126,CN-0050,medium_airport,Panzhihua Bao'anying Airport,26.54,101.79852,1620.0,AS,CN,CN-51,Panzhihua (Renhe),PZI
323879,CN-0051,small_airport,Zigong Fengming Airport,29.376484,104.625789,1133.0,AS,CN,CN-51,Zigong (Gongjing),ZKL
44139,CN-0061,medium_airport,Foshan Shadi Airport,23.0833,113.07,6.0,AS,CN,CN-44,Foshan (Nanhai),FUO
323881,CN-0062,small_airport,Bazhong Enyang Airport,31.73842,106.644872,1804.0,AS,CN,CN-51,Bazhong (Enyang),BZX
323907,CN-0067,medium_airport,Xinyang Minggang Airport,32.540819,114.079141,312.0,AS,CN,CN-41,Xinyang,XAI
44146,CN-0068,medium_airport,Huizhou Pingtan Airport,23.049999,114.599998,50.0,AS,CN,CN-44,Huizhou (Pingtan),HUZ
324348,CN-0073,small_airport,Shangluo Airport,33.708533,110.249284,,AS,CN,CN-61,Shangluo (Danfeng),DFA
44157,CN-0079,medium_airport,Shaoguan Danxia Airport,24.9786,113.420998,280.0,AS,CN,CN-44,Shaoguan,HSC
44159,CN-0081,medium_airport,Jinggangshan Airport,26.856899,114.737,281.0,AS,CN,CN-36,Ji'an,JGS
44160,CN-0082,medium_airport,Baise Youjiang Airport,23.7206,106.959999,490.0,AS,CN,CN-45,Baise (Tianyang),AEB
44167,CN-0089,medium_airport,Lianyungang Huaguoshan International Airport,34.41406,119.17899,,AS,CN,CN-32,Lianyungang,LYG
44169,CN-0091,medium_airport,Dongying Shengli Airport,37.5085983276,118.788002014,15.0,AS,CN,CN-37,Dongying,DOY
44182,CN-0104,medium_airport,Xingcheng Air Base,40.580328,120.700374,30.0,AS,CN,CN-21,"Xingcheng, Huludao",XEN
44191,CN-0113,medium_airport,Altay Xuedu Airport,47.749886,88.085808,2460.0,AS,CN,CN-65,Altay,AAT
44208,CN-0130,medium_airport,Tianshui Maijishan Airport,34.559399,105.860001,3590.0,AS,CN,CN-62,Tianshui (Maiji),THQ
44221,CN-0143,small_airport,Zhangye Ganzhou Airport,38.801899,100.675003,5280.0,AS,CN,CN-62,Zhangye (Ganzhou),YZY
342426,CN-0157,small_airport,Morin Dawa Banner Airport,48.38745,124.43127,722.0,AS,CN,CN-15,Hulunbuir,DWS
348149,CN-0177,small_airport,Shijiazhuang Luancheng Airport,37.91305,114.59166,197.0,AS,CN,CN-13,Shijiazhuang,LCT
348158,CN-0188,medium_airport,Beijing Nanjiao Airport,39.48595,116.37236,,AS,CN,CN-11,Beijing,NAY
44267,CN-0189,medium_airport,Dandong Langtou Airport,40.0247,124.286003,30.0,AS,CN,CN-21,"Zhenxing, Dandong",DDG
348690,CN-0218,small_airport,Binzhou Daguo Airport,37.61055,117.885699,25.0,AS,CN,CN-37,Binzhou,CBZ
350882,CN-0236,medium_airport,Xigaze Dingri Airport,28.604567,86.798,14108.0,AS,CN,CN-54,Xigazê (Dingri),DDR
350949,CN-0253,small_airport,Jiande Qiandaohu General Airport,29.360905,119.180829,249.0,AS,CN,CN-33,Hangzhou,JDE
350965,CN-0268,small_airport,Zhaodong Beidahuang General Airport,46.12779,125.77354,469.0,AS,CN,CN-23,Suihua,HLJ
352226,CN-0300,small_airport,Taiyuan Yaocheng Airport,37.50312,112.424126,,AS,CN,CN-14,Taiyuan,TYC
354995,CN-0353,medium_airport,Zhanjiang Wuchuan Airport,21.481667,110.590278,,AS,CN,CN-44,Zhanjiang,ZHA
355952,CN-0359,small_airport,Zhaosu Tianma Airport,43.1075,81.160556,,AS,CN,CN-65,Zhaosu,ZFL
32048,CN-NTG,medium_airport,Nantong Xingdong International Airport,32.070801,120.975998,16.0,AS,CN,CN-32,Nantong,NTG
1299,CNE3,small_airport,Bearskin Lake Airport,53.965599060058594,-91.0271987915039,800.0,,CA,CA-ON,Bearskin Lake,XBE
1308,CNH2,small_airport,Natuashish Airport,55.913898,-61.184399,30.0,,CA,CA-NL,Natuashish,YNP
28467,CNJ8,seaplane_base,White River Seaplane Base,48.6269,-85.223297,1380.0,,CA,CA-ON,White River,YWR
1314,CNK4,small_airport,Parry Sound Area Municipal Airport,45.2575,-79.829697,832.0,,CA,CA-ON,Parry Sound,YPD
1317,CNL3,small_airport,Brockville - Thousand Islands Regional Tackaberry Airport,44.6394004822,-75.7502975464,402.0,,CA,CA-ON,Brockville,XBR
1324,CNM5,small_airport,Kingfisher Lake Airport,53.01250076293945,-89.85530090332031,866.0,,CA,CA-ON,Kingfisher Lake,KIF
1343,CNT3,small_airport,Ogoki Post Airport,51.6585998535,-85.9017028809,594.0,,CA,CA-ON,Ogoki Post,YOG
41597,CO-LCR,small_airport,La Chorrera Airport,-0.733333,-73.01667,709.0,SA,CO,CO-AMA,La Chorrera,LCR
32342,CO-SNT,small_airport,Las Cruces Airport,7.38322,-73.505402,440.0,SA,CO,CO-SAN,Sabana De Torres,SNT
35319,CO-TCD,small_airport,Tarapacá Airport,-2.894722,-69.747222,253.0,SA,CO,CO-AMA,Tarapacá,TCD
1401,CPF2,small_airport,Bar River Airport,46.42029953,-84.0922012329,591.0,,CA,CA-ON,Bar River,YEB
302208,CPI,small_airport,Cape Orford Airport,-5.44833333333,152.081944444,20.0,OC,PG,PG-EBR,,CPI
28357,CPS9,seaplane_base,Parry Sound/Frying Pan Island-Sans Souci Seaplane Base,45.173302,-80.137497,580.0,,CA,CA-ON,Frying Pan Island,YSI
1465,CPV7,small_airport,Poplar Hill Airport,52.1133,-94.2556,1095.0,,CA,CA-ON,Poplar Hill,YHP
1466,CPV8,small_airport,Keewaywin Airport,52.9911,-92.836403,988.0,,CA,CA-ON,Keewaywin,KEW
355460,CR8A,heliport,Reef Hueston Helicopter Landing,53.823101,-126.172228,,,CA,CA-BC,Streatham,XVQ
1492,CRL4,small_airport,Kirby Lake Airport,55.355598,-110.637001,2260.0,,CA,CA-AB,Kirby Lake,KFM
44427,CSB2,small_airport,Sable Island Landing Strip,43.930951,-59.996147,4.0,,CA,CA-NS,Sable Island,YSA
1521,CSH4,small_airport,Lebel-sur-Quevillon Airport,49.0303001404,-77.0171966553,960.0,,CA,CA-QC,Lebel-sur-Quévillon,YLS
1531,CSK6,small_airport,Snap Lake Airport,63.593601,-110.905998,1557.0,,CA,CA-NT,Snap Lake Mine,YNX
1556,CSR8,small_airport,La Sarre Airport,48.917198181152,-79.178596496582,1048.0,,CA,CA-QC,La Sarre,SSQ
1563,CSU2,small_airport,Chisasibi Airport,53.80559921264648,-78.91690063476562,43.0,,CA,CA-QC,Chisasibi,YKU
17042,CT88,heliport,Rentschler Heliport,41.7517,-72.6253,30.0,,US,US-CT,East Hartford,EHT
1590,CTB6,small_airport,Tête-à-la-Baleine Airport,50.67440032958984,-59.38359832763672,107.0,,CA,CA-QC,Tête-à-la-Baleine,ZTB
1604,CTK6,small_airport,Kegaska Airport,50.1958007812,-61.2658004761,32.0,,CA,CA-QC,Kegaska,ZKG
28194,CTM3,seaplane_base,Chute-Des-Passes/Lac Margane Seaplane Base,49.9434,-71.138,1310.0,,CA,CA-QC,Chutes-des-Passes,YWQ
37052,CTP,small_airport,Carutapera Airport,-1.225365,-46.019057,85.0,SA,BR,BR-MA,Carutapera,CTP
1608,CTP9,small_airport,Donaldson Airport,61.6622009277,-73.3214035034,1902.0,,CA,CA-QC,Kattiniq,YAU
28350,CTR7,seaplane_base,Ottawa / Rockcliffe Seaplane Base,45.463832946100005,-75.64254283910002,,,CA,CA-ON,Ottawa,TR7
1617,CTT5,small_airport,La Romaine Airport,50.259701,-60.679401,90.0,,CA,CA-QC,La Romaine,ZGS
1618,CTU2,small_airport,Fontanges Airport,54.553901672363,-71.173301696777,1550.0,,CA,CA-QC,Fontanges,YFG
1619,CTU5,small_airport,La Tabatière Airport,50.8307991027832,-58.97560119628906,102.0,,CA,CA-QC,La Tabatière,ZLT
316499,CUJ,small_airport,Culion Airport,11.8553,119.9378,155.0,AS,PH,PH-PLW,Culion,CUJ
17054,CVH,small_airport,Hollister Municipal Airport,36.8932991028,-121.410003662,230.0,,US,US-CA,Hollister,HLI
302209,CVL,small_airport,Cape Vogel Airport,-9.67,150.019722222,20.0,OC,PG,PG-MBA,,CVL
17055,CXC,small_airport,Chitina Airport,61.582901001,-144.427001953,556.0,,US,US-AK,Chitina,CXC
44646,CY-0002,medium_airport,Lefkoniko Airport / Geçitkale Air Base,35.235947,33.724358,146.0,AS,CY,CY-03,Geçitkale,GEC
46596,CYAB,small_airport,Arctic Bay Airport,73.006101,-85.04616,72.0,,CA,CA-NU,Arctic Bay,YAB
1652,CYAC,medium_airport,Cat Lake Airport,51.72719955444336,-91.82440185546876,1344.0,,CA,CA-ON,Cat Lake,YAC
1653,CYAD,small_airport,La Grande-3 Airport,53.5717010498,-76.19640350339999,775.0,,CA,CA-QC,La Grande-3,YAR
1654,CYAG,medium_airport,Fort Frances Municipal Airport,48.655749,-93.44349,1125.0,,CA,CA-ON,Fort Frances,YAG
1655,CYAH,medium_airport,La Grande-4 Airport,53.754699707,-73.6753005981,1005.0,,CA,CA-QC,La Grande-4,YAH
1656,CYAL,medium_airport,Alert Bay Airport,50.582199,-126.916,240.0,,CA,CA-BC,Alert Bay,YAL
1657,CYAM,medium_airport,Sault Ste Marie Airport,46.485001,-84.509399,630.0,,CA,CA-ON,Sault Ste Marie,YAM
1658,CYAQ,medium_airport,Kasabonika Airport,53.52470016479492,-88.6427993774414,672.0,,CA,CA-ON,Kasabonika,XKS
1659,CYAS,medium_airport,Kangirsuk Airport,60.02719879150391,-69.99919891357422,403.0,,CA,CA-QC,Kangirsuk,YKG
1660,CYAT,medium_airport,Attawapiskat Airport,52.9275016784668,-82.43190002441406,31.0,,CA,CA-ON,Attawapiskat,YAT
1665,CYAY,medium_airport,St. Anthony Airport,51.391909,-56.08321,108.0,,CA,CA-NL,St. Anthony,YAY
1666,CYAZ,medium_airport,Tofino / Long Beach Airport,49.079833,-125.775583,80.0,,CA,CA-BC,Tofino,YAZ
1667,CYBA,small_airport,Banff Airport,51.208222,-115.540624,4583.0,,CA,CA-AB,Banff,YBA
1668,CYBB,medium_airport,Kugaaruk Airport,68.534401,-89.808098,56.0,,CA,CA-NU,Kugaaruk,YBB
1669,CYBC,medium_airport,Baie-Comeau Airport,49.1325,-68.204399,71.0,,CA,CA-QC,Baie-Comeau,YBC
1670,CYBD,medium_airport,Bella Coola Airport,52.387501,-126.596001,117.0,,CA,CA-BC,Bella Coola,QBC
1671,CYBE,medium_airport,Uranium City Airport,59.5614013671875,-108.4810028076172,1044.0,,CA,CA-SK,Uranium City,YBE
1672,CYBF,medium_airport,Bonnyville Airport,54.304199,-110.744003,1836.0,,CA,CA-AB,Bonnyville,YBY
1673,CYBG,medium_airport,CFB Bagotville,48.33060073852539,-70.99639892578125,522.0,,CA,CA-QC,Bagotville,YBG
1674,CYBK,medium_airport,Baker Lake Airport,64.29889678960001,-96.077796936,59.0,,CA,CA-NU,Baker Lake,YBK
1675,CYBL,medium_airport,Campbell River Airport,49.950802,-125.271004,346.0,,CA,CA-BC,Campbell River,YBL
1677,CYBQ,medium_airport,Tadoule Lake Airport,58.7061,-98.512199,923.0,,CA,CA-MB,Tadoule Lake,XTL
1678,CYBR,medium_airport,Brandon Municipal Airport,49.91,-99.951897,1343.0,,CA,CA-MB,Brandon,YBR
1679,CYBT,medium_airport,Brochet Airport,57.8894,-101.679001,1136.0,,CA,CA-MB,Brochet,YBT
1681,CYBV,medium_airport,Berens River Airport,52.358898,-97.018303,728.0,,CA,CA-MB,Berens River,YBV
1683,CYBX,medium_airport,Lourdes-de-Blanc-Sablon Airport,51.4436,-57.185299,121.0,,CA,CA-QC,Blanc-Sablon,YBX
1684,CYCA,medium_airport,Cartwright Airport,53.682501,-57.042303,40.0,,CA,CA-NL,Cartwright,YRF
1685,CYCB,medium_airport,Cambridge Bay Airport,69.1081008911,-105.138000488,90.0,,CA,CA-NU,Cambridge Bay,YCB
1686,CYCC,medium_airport,Cornwall Regional Airport,45.092637,-74.567724,175.0,,CA,CA-ON,Cornwall,YCC
1687,CYCD,medium_airport,Nanaimo Airport,49.05497,-123.869863,92.0,,CA,CA-BC,Nanaimo,YCD
1688,CYCE,medium_airport,Centralia / James T. Field Memorial Aerodrome,43.285599,-81.508301,824.0,,CA,CA-ON,Huron Park,YCE
1689,CYCG,medium_airport,Castlegar/West Kootenay Regional Airport,49.2963981628,-117.632003784,1624.0,,CA,CA-BC,Castlegar,YCG
1690,CYCH,medium_airport,Miramichi Airport,47.007801,-65.449203,108.0,,CA,CA-NB,Miramichi,YCH
1364,CYCK,small_airport,Chatham Kent Airport,42.3064002991,-82.0819015503,650.0,,CA,CA-ON,Chatham-Kent,XCM
1691,CYCL,medium_airport,Charlo Airport,47.990799,-66.330299,132.0,,CA,CA-NB,Charlo,YCL
1692,CYCN,medium_airport,Cochrane Airport,49.10559844970703,-81.01360321044922,861.0,,CA,CA-ON,Cochrane,YCN
1693,CYCO,medium_airport,Kugluktuk Airport,67.816704,-115.143997,74.0,,CA,CA-NU,Kugluktuk,YCO
1695,CYCQ,medium_airport,Chetwynd Airport,55.687198638916016,-121.6269989013672,2000.0,,CA,CA-BC,Chetwynd,YCQ
1696,CYCR,medium_airport,Cross Lake (Charlie Sinclair Memorial) Airport,54.610599517822266,-97.76080322265624,709.0,,CA,CA-MB,Cross Lake,YCR
1697,CYCS,medium_airport,Chesterfield Inlet Airport,63.3469009399,-90.7311019897,32.0,,CA,CA-NU,Chesterfield Inlet,YCS
1698,CYCT,small_airport,Coronation Airport,52.0750007629,-111.444999695,2595.0,,CA,CA-AB,Coronation,YCT
1699,CYCW,small_airport,Chilliwack Airport,49.153157,-121.939309,32.0,,CA,CA-BC,Chilliwack,YCW
1701,CYCY,medium_airport,Clyde River Airport,70.4860992432,-68.5167007446,87.0,,CA,CA-NU,Clyde River,YCY
1702,CYCZ,small_airport,Fairmont Hot Springs Airport,50.331052,-115.873739,2661.0,,CA,CA-BC,Fairmont Hot Springs,YCZ
1703,CYDA,medium_airport,Dawson City Airport,64.04309844970703,-139.1280059814453,1215.0,,CA,CA-YT,Dawson City,YDA
1704,CYDB,medium_airport,Burwash Airport,61.371101,-139.041,2647.0,,CA,CA-YT,Burwash Landing,YDB
1706,CYDF,medium_airport,Deer Lake Airport,49.21080017089844,-57.39139938354492,72.0,,CA,CA-NL,Deer Lake,YDF
1708,CYDL,small_airport,Dease Lake Airport,58.4221992493,-130.031997681,2600.0,,CA,CA-BC,Dease Lake,YDL
1709,CYDM,medium_airport,Ross River Airport,61.9706001282,-132.42300415,2314.0,,CA,CA-YT,Ross River,XRR
1710,CYDN,medium_airport,Dauphin Barker Airport,51.10079956054688,-100.052001953125,999.0,,CA,CA-MB,Dauphin,YDN
1711,CYDO,medium_airport,Dolbeau St Felicien Airport,48.778499603271,-72.375,372.0,,CA,CA-QC,Dolbeau-St-Félicien,YDO
1712,CYDP,medium_airport,Nain Airport,56.550778,-61.682224,22.0,,CA,CA-NL,Nain,YDP
1713,CYDQ,medium_airport,Dawson Creek Airport,55.7422981262207,-120.18299865722656,2148.0,,CA,CA-BC,Dawson Creek,YDQ
1717,CYEG,large_airport,Edmonton International Airport,53.3097000122,-113.580001831,2373.0,,CA,CA-AB,Edmonton,YEG
1718,CYEK,medium_airport,Arviat Airport,61.0942001343,-94.0708007812,32.0,,CA,CA-NU,Arviat,YEK
1719,CYEL,medium_airport,Elliot Lake Municipal Airport,46.351398468,-82.5614013672,1087.0,,CA,CA-ON,Elliot Lake,YEL
1720,CYEM,medium_airport,Manitoulin East Municipal Airport,45.842435,-81.857595,869.0,,CA,CA-ON,Sheguiandah,YEM
1721,CYEN,medium_airport,Estevan Airport,49.2103004456,-102.966003418,1905.0,,CA,CA-SK,Estevan,YEN
1722,CYER,medium_airport,Fort Severn Airport,56.01890182495117,-87.67610168457031,48.0,,CA,CA-ON,Fort Severn,YER
1724,CYET,medium_airport,Edson Airport,53.5788993835,-116.464996338,3043.0,,CA,CA-AB,Edson,YET
1725,CYEU,small_airport,Eureka Airport,79.9946975708,-85.814201355,256.0,,CA,CA-NU,Eureka,YEU
1726,CYEV,medium_airport,Inuvik Mike Zubko Airport,68.30419921880001,-133.483001709,224.0,,CA,CA-NT,Inuvik,YEV
1727,CYEY,medium_airport,Amos/Magny Airport,48.563903,-78.249702,1068.0,,CA,CA-QC,Amos,YEY
1728,CYFA,medium_airport,Fort Albany Airport,52.20140075683594,-81.6968994140625,48.0,,CA,CA-ON,Fort Albany,YFA
1729,CYFB,medium_airport,Iqaluit Airport,63.756402,-68.555801,110.0,,CA,CA-NU,Iqaluit,YFB
1730,CYFC,medium_airport,Fredericton Airport,45.868900299072266,-66.53720092773438,68.0,,CA,CA-NB,Fredericton,YFC
1732,CYFE,medium_airport,Forestville Airport,48.74610137939453,-69.09719848632812,293.0,,CA,CA-QC,Forestville,YFE
1733,CYFH,medium_airport,Fort Hope Airport,51.5619010925293,-87.90779876708984,899.0,,CA,CA-ON,Fort Hope,YFH
1734,CYFJ,medium_airport,Mont-Tremblant International Airport,46.409401,-74.779999,827.0,,CA,CA-QC,La Macaza,YTM
1735,CYFO,medium_airport,Flin Flon Airport,54.6781005859375,-101.68199920654295,997.0,,CA,CA-MB,Flin Flon,YFO
1736,CYFR,medium_airport,Fort Resolution Airport,61.1808013916,-113.690002441,526.0,,CA,CA-NT,Fort Resolution,YFR
1737,CYFS,medium_airport,Fort Simpson Airport,61.76020050048828,-121.23699951171876,555.0,,CA,CA-NT,Fort Simpson,YFS
1738,CYFT,medium_airport,Makkovik Airport,55.077335,-59.187942,234.0,,CA,CA-NL,Makkovik,YMN
1739,CYGB,medium_airport,Texada Gillies Bay Airport,49.69419860839844,-124.51799774169922,326.0,,CA,CA-BC,Texada,YGB
1742,CYGH,medium_airport,Fort Good Hope Airport,66.24079895019531,-128.6510009765625,268.0,,CA,CA-NT,Fort Good Hope,YGH
1743,CYGK,medium_airport,Kingston Norman Rogers Airport,44.22529983520508,-76.5969009399414,305.0,,CA,CA-ON,Kingston,YGK
1744,CYGL,medium_airport,La Grande Rivière Airport,53.625301361083984,-77.7042007446289,639.0,,CA,CA-QC,La Grande Rivière,YGL
1745,CYGM,medium_airport,Gimli Industrial Park Airport,50.62810134887695,-97.04329681396484,753.0,,CA,CA-MB,Gimli,YGM
1746,CYGO,medium_airport,Gods Lake Narrows Airport,54.55889892578125,-94.49140167236328,617.0,,CA,CA-MB,Gods Lake Narrows,YGO
1747,CYGP,medium_airport,Gaspé (Michel-Pouliot) Airport,48.7752990723,-64.4785995483,112.0,,CA,CA-QC,Gaspé,YGP
1748,CYGQ,medium_airport,Geraldton Greenstone Regional Airport,49.77830123901367,-86.93939971923828,1144.0,,CA,CA-ON,Geraldton,YGQ
1749,CYGR,medium_airport,Îles-de-la-Madeleine Airport,47.425242,-61.778612,35.0,,CA,CA-QC,Les Îles-de-la-Madeleine,YGR
1750,CYGT,medium_airport,Igloolik Airport,69.3647003174,-81.8161010742,174.0,,CA,CA-NU,Igloolik,YGT
1751,CYGV,medium_airport,Havre-Saint-Pierre Airport,50.281898,-63.611401,124.0,,CA,CA-QC,Havre-Saint-Pierre,YGV
1752,CYGW,medium_airport,Kuujjuarapik Airport,55.28189849853516,-77.76529693603516,34.0,,CA,CA-QC,Kuujjuarapik,YGW
1753,CYGX,medium_airport,Gillam Airport,56.35749816894531,-94.71060180664062,476.0,,CA,CA-MB,Gillam,YGX
1754,CYGZ,medium_airport,Grise Fiord Airport,76.4261016846,-82.90920257570001,146.0,,CA,CA-NU,Grise Fiord,YGZ
1755,CYHA,medium_airport,Quaqtaq Airport,61.0463981628418,-69.6177978515625,103.0,,CA,CA-QC,Quaqtaq,YQC
1756,CYHB,small_airport,Hudson Bay Airport,52.8166999817,-102.310997009,1175.0,,CA,CA-SK,Hudson Bay,YHB
28453,CYHC,seaplane_base,Vancouver Harbour Water Aerodrome,49.291265,-123.11717,,,CA,CA-BC,Vancouver,CXH
1757,CYHD,medium_airport,Dryden Regional Airport,49.831699,-92.744202,1354.0,,CA,CA-ON,Dryden,YHD
1758,CYHE,medium_airport,Hope Airport / FVRD Regional Airpark,49.368865,-121.49495,128.0,,CA,CA-BC,Hope,YHE
1759,CYHF,medium_airport,Hearst René Fontaine Municipal Airport,49.71419906616211,-83.68609619140625,827.0,,CA,CA-ON,Hearst,YHF
1760,CYHH,medium_airport,Nemiscau Airport,51.69110107421875,-76.1355972290039,802.0,,CA,CA-QC,Nemiscau,YNS
1761,CYHI,medium_airport,Ulukhaktok Holman Airport,70.76280212402344,-117.80599975585938,117.0,,CA,CA-NT,Ulukhaktok,YHI
1762,CYHK,medium_airport,Gjoa Haven Airport,68.635597229,-95.8497009277,152.0,,CA,CA-NU,Gjoa Haven,YHK
1763,CYHM,medium_airport,John C. Munro Hamilton International Airport,43.1735992432,-79.93499755859999,780.0,,CA,CA-ON,Hamilton,YHM
1764,CYHN,medium_airport,Hornepayne Municipal Airport,49.19309997558594,-84.75890350341797,1099.0,,CA,CA-ON,Hornepayne,YHN
1765,CYHO,medium_airport,Hopedale Airport,55.448757,-60.228124,39.0,,CA,CA-NL,Hopedale,YHO
1766,CYHR,medium_airport,Chevery Airport,50.46889877319336,-59.63669967651367,39.0,,CA,CA-QC,Chevery,YHR
1767,CYHT,medium_airport,Haines Junction Airport,60.7892,-137.546005,2150.0,,CA,CA-YT,Haines Junction,YHT
1768,CYHU,medium_airport,Montréal / Saint-Hubert Airport,45.5175018311,-73.4169006348,90.0,,CA,CA-QC,Montréal,YHU
1769,CYHY,medium_airport,Hay River / Merlyn Carter Airport,60.8396987915,-115.782997131,541.0,,CA,CA-NT,Hay River,YHY
1770,CYHZ,large_airport,Halifax / Stanfield International Airport,44.8807983398,-63.5085983276,477.0,,CA,CA-NS,Halifax,YHZ
1771,CYIB,medium_airport,Atikokan Municipal Airport,48.7738990784,-91.6386032104,1408.0,,CA,CA-ON,Atikokan,YIB
1772,CYID,medium_airport,Digby / Annapolis Regional Airport,44.5458450365,-65.7854247093,499.0,,CA,CA-NS,Digby,YDG
1773,CYIF,medium_airport,St Augustin Airport,51.2117004395,-58.6582984924,20.0,,CA,CA-QC,St-Augustin,YIF
1774,CYIK,medium_airport,Ivujivik Airport,62.41730117797852,-77.92530059814453,126.0,,CA,CA-QC,Ivujivik,YIK
1775,CYIO,medium_airport,Pond Inlet Airport,72.6832962036,-77.9666976929,181.0,,CA,CA-NU,Pond Inlet,YIO
1776,CYIV,medium_airport,Island Lake Airport,53.857200622558594,-94.65360260009766,770.0,,CA,CA-MB,Island Lake,YIV
1777,CYJA,small_airport,Jasper Airport,52.996418,-118.060233,3350.0,,CA,CA-AB,Jasper,YJA
1778,CYJF,medium_airport,Fort Liard Airport,60.2358016968,-123.46900177,708.0,,CA,CA-NT,Fort Liard,YJF
1780,CYJN,medium_airport,St Jean Airport,45.29439926147461,-73.28109741210938,136.0,,CA,CA-QC,St Jean,YJN
1783,CYJT,medium_airport,Stephenville Airport,48.5442008972168,-58.54999923706055,84.0,,CA,CA-NL,Stephenville,YJT
1784,CYKA,medium_airport,Kamloops Airport,50.7022018433,-120.444000244,1133.0,,CA,CA-BC,Kamloops,YKA
1785,CYKC,small_airport,Collins Bay Airport,58.2360992432,-103.678001404,1341.0,,CA,CA-SK,Collins Bay,YKC
1786,CYKD,medium_airport,Aklavik/Freddie Carmichael Airport,68.223297,-135.00599,23.0,,CA,CA-NT,Aklavik,LAK
1787,CYKF,medium_airport,Waterloo Airport,43.4608001709,-80.3786010742,1055.0,,CA,CA-ON,Kitchener,YKF
1788,CYKG,medium_airport,Kangiqsujuaq (Wakeham Bay) Airport,61.5886001587,-71.929397583,501.0,,CA,CA-QC,Kangiqsujuaq,YWB
1789,CYKJ,medium_airport,Key Lake Airport,57.25609970092773,-105.61799621582033,1679.0,,CA,CA-SK,Key Lake,YKJ
1790,CYKL,medium_airport,Schefferville Airport,54.805301666259766,-66.8052978515625,1709.0,,CA,CA-QC,Schefferville,YKL
1340,CYKM,small_airport,Kincardine Municipal Airport,44.201401,-81.606697,772.0,,CA,CA-ON,Kincardine,YKD
1791,CYKO,medium_airport,Akulivik Airport,60.81859970092773,-78.14859771728516,75.0,,CA,CA-QC,Akulivik,AKV
1792,CYKQ,medium_airport,Waskaganish Airport,51.47330093383789,-78.75830078125,80.0,,CA,CA-QC,Waskaganish,YKQ
1793,CYKX,medium_airport,Kirkland Lake Airport,48.21030044555664,-79.98139953613281,1157.0,,CA,CA-ON,Kirkland Lake,YKX
1794,CYKY,medium_airport,Kindersley Airport,51.5175018311,-109.180999756,2277.0,,CA,CA-SK,Kindersley,YKY
1795,CYKZ,medium_airport,Buttonville Municipal Airport,43.86220169067383,-79.37000274658203,650.0,,CA,CA-ON,Toronto,YKZ
1796,CYLA,medium_airport,Aupaluk Airport,59.29669952392578,-69.59970092773438,119.0,,CA,CA-QC,Aupaluk,YPJ
1797,CYLB,small_airport,Lac La Biche Airport,54.7703018188,-112.031997681,1884.0,,CA,CA-AB,Lac La Biche,YLB
1798,CYLC,medium_airport,Kimmirut Airport,62.848253,-69.877853,175.0,,CA,CA-NU,Kimmirut,YLC
1799,CYLD,medium_airport,Chapleau Airport,47.81999969482422,-83.3467025756836,1470.0,,CA,CA-ON,Chapleau,YLD
1800,CYLH,medium_airport,Lansdowne House Airport,52.19559860229492,-87.93419647216797,834.0,,CA,CA-ON,Lansdowne House,YLH
1801,CYLJ,medium_airport,Meadow Lake Airport,54.125301361083984,-108.52300262451172,1576.0,,CA,CA-SK,Meadow Lake,YLJ
1802,CYLK,medium_airport,Lutselk'e Airport,62.418303,-110.681998,596.0,,CA,CA-NT,Lutselk'e,YSG
1803,CYLL,medium_airport,Lloydminster Airport,53.309200286865234,-110.072998046875,2193.0,,CA,CA-AB,Lloydminster,YLL
1804,CYLQ,small_airport,La Tuque Airport,47.4096984863,-72.7889022827,548.0,,CA,CA-QC,La Tuque,YLQ
1805,CYLR,medium_airport,Leaf Rapids Airport,56.513301849365234,-99.98529815673828,959.0,,CA,CA-MB,Leaf Rapids,YLR
1293,CYLS,small_airport,Barrie-Lake Simcoe Regional Airport,44.485989,-79.555687,972.0,,CA,CA-ON,Barrie,YLK
1806,CYLT,medium_airport,Alert Airport,82.517799,-62.280602,100.0,,CA,CA-NU,Alert,YLT
1807,CYLU,medium_airport,Kangiqsualujjuaq (Georges River) Airport,58.711399,-65.992798,215.0,,CA,CA-QC,Kangiqsualujjuaq,XGR
1808,CYLW,medium_airport,Kelowna International Airport,49.9561,-119.377998,1421.0,,CA,CA-BC,Kelowna,YLW
17057,CYM,seaplane_base,Chatham Seaplane Base,57.5149,-134.945999,0.0,,US,US-AK,Chatham,CYM
1809,CYMA,medium_airport,Mayo Airport,63.61640167236328,-135.8679962158203,1653.0,,CA,CA-YT,Mayo,YMA
1810,CYME,medium_airport,Matane Airport,48.85689926147461,-67.45330047607422,102.0,,CA,CA-QC,Matane,YME
1811,CYMG,medium_airport,Manitouwadge Airport,49.08390045166016,-85.86060333251953,1198.0,,CA,CA-ON,Manitouwadge,YMG
1812,CYMH,medium_airport,Mary's Harbour Airport,52.302837,-55.847626,38.0,,CA,CA-NL,Mary's Harbour,YMH
1813,CYMJ,medium_airport,Moose Jaw Air Vice Marshal C. M. McEwen Airport,50.330299377441406,-105.55899810791016,1892.0,,CA,CA-SK,Moose Jaw,YMJ
1814,CYML,medium_airport,Charlevoix Airport,47.59749984741211,-70.2238998413086,977.0,,CA,CA-QC,Charlevoix,YML
1815,CYMM,medium_airport,Fort McMurray Airport,56.653301239,-111.222000122,1211.0,,CA,CA-AB,Fort McMurray,YMM
1816,CYMO,medium_airport,Moosonee Airport,51.29109954833984,-80.60780334472656,30.0,,CA,CA-ON,Moosonee,YMO
1817,CYMT,medium_airport,Chapais Airport,49.77190017700195,-74.5280990600586,1270.0,,CA,CA-QC,Chibougamau,YMT
1818,CYMU,medium_airport,Umiujaq Airport,56.53609848022461,-76.51830291748047,250.0,,CA,CA-QC,Umiujaq,YUD
1819,CYMW,small_airport,Maniwaki Airport,46.2728,-75.990601,656.0,,CA,CA-QC,Maniwaki,YMW
1820,CYMX,medium_airport,Montreal International (Mirabel) Airport,45.679501,-74.038696,270.0,,CA,CA-QC,Montréal,YMX
1822,CYNA,medium_airport,Natashquan Airport,50.18999862670898,-61.78919982910156,39.0,,CA,CA-QC,Natashquan,YNA
1823,CYNC,medium_airport,Wemindji Airport,53.01060104370117,-78.83110046386719,66.0,,CA,CA-QC,Wemindji,YNC
1824,CYND,medium_airport,Ottawa / Gatineau Airport,45.521702,-75.563599,211.0,,CA,CA-QC,Gatineau,YND
1825,CYNE,medium_airport,Norway House Airport,53.95830154418945,-97.84420013427734,734.0,,CA,CA-MB,Norway House,YNE
1826,CYNH,small_airport,Hudsons Hope Airport,56.0355987549,-121.975997925,2220.0,,CA,CA-BC,Hudson's Hope,YNH
1827,CYNJ,small_airport,Langley Airport,49.1008,-122.630997,34.0,,CA,CA-BC,Langley Twp,YLY
1828,CYNL,medium_airport,Points North Landing Airport,58.27669906616211,-104.08200073242188,1605.0,,CA,CA-SK,Points North Landing,YNL
1829,CYNM,medium_airport,Matagami Airport,49.76169967651367,-77.80280303955078,918.0,,CA,CA-QC,Matagami,YNM
1831,CYNR,small_airport,Fort Mackay / Horizon Airport,57.3816986084,-111.700996399,916.0,,CA,CA-AB,Fort Mackay,HZP
1832,CYOA,medium_airport,Ekati Airport,64.6988983154,-110.614997864,1536.0,,CA,CA-NT,Ekati,YOA
1833,CYOC,medium_airport,Old Crow Airport,67.57060241699219,-139.83900451660156,824.0,,CA,CA-YT,Old Crow,YOC
1834,CYOD,medium_airport,CFB Cold Lake,54.40499877929688,-110.27899932861328,1775.0,,CA,CA-AB,Cold Lake,YOD
1835,CYOH,medium_airport,Oxford House Airport,54.93330001831055,-95.27890014648438,663.0,,CA,CA-MB,Oxford House,YOH
1836,CYOJ,medium_airport,High Level Airport,58.62139892578125,-117.16500091552734,1110.0,,CA,CA-AB,High Level,YOJ
1837,CYOO,medium_airport,Oshawa Executive Airport,43.922798,-78.894997,460.0,,CA,CA-ON,Oshawa,YOO
1838,CYOP,medium_airport,Rainbow Lake Airport,58.49140167236328,-119.40799713134766,1759.0,,CA,CA-AB,Rainbow Lake,YOP
1839,CYOS,medium_airport,Owen Sound / Billy Bishop Regional Airport,44.5903015137,-80.8375015259,1007.0,,CA,CA-ON,Owen Sound,YOS
1840,CYOW,large_airport,Ottawa Macdonald-Cartier International Airport,45.322498,-75.669197,374.0,,CA,CA-ON,Ottawa,YOW
1842,CYPA,medium_airport,Prince Albert Glass Field,53.2141990662,-105.672996521,1405.0,,CA,CA-SK,Prince Albert,YPA
1843,CYPC,medium_airport,Paulatuk (Nora Aliqatchialuk Ruben) Airport,69.3608381154,-124.075469971,15.0,,CA,CA-NT,Paulatuk,YPC
1844,CYPD,medium_airport,Port Hawkesbury Airport,45.6567001343,-61.3680992126,377.0,,CA,CA-NS,Port Hawkesbury,YPS
1845,CYPE,medium_airport,Peace River Airport,56.226898,-117.446999,1873.0,,CA,CA-AB,Peace River,YPE
1846,CYPG,medium_airport,Portage-la-Prairie / Southport Airport,49.903099,-98.273817,885.0,,CA,CA-MB,Portage la Prairie,YPG
1847,CYPH,medium_airport,Inukjuak Airport,58.471900939941406,-78.07689666748047,83.0,,CA,CA-QC,Inukjuak,YPH
1849,CYPL,medium_airport,Pickle Lake Airport,51.4463996887207,-90.21420288085938,1267.0,,CA,CA-ON,Pickle Lake,YPL
1850,CYPM,medium_airport,Pikangikum Airport,51.81969833374024,-93.97329711914062,1114.0,,CA,CA-ON,Pikangikum,YPM
1851,CYPN,medium_airport,Port Menier Airport,49.83639907836914,-64.2885971069336,167.0,,CA,CA-QC,Port-Menier,YPN
1852,CYPO,medium_airport,Peawanuck Airport,54.98809814453125,-85.44329833984375,173.0,,CA,CA-ON,Peawanuck,YPO
1854,CYPQ,medium_airport,Peterborough Municipal Airport,44.23,-78.363297,628.0,,CA,CA-ON,Peterborough,YPQ
1855,CYPR,medium_airport,Prince Rupert Airport,54.2860984802,-130.445007324,116.0,,CA,CA-BC,Prince Rupert,YPR
1859,CYPW,medium_airport,Powell River Airport,49.83420181274414,-124.5,425.0,,CA,CA-BC,Powell River,YPW
1860,CYPX,medium_airport,Puvirnituq Airport,60.05059814453125,-77.28690338134766,74.0,,CA,CA-QC,Puvirnituq,YPX
1861,CYPY,medium_airport,Fort Chipewyan Airport,58.7672004699707,-111.11699676513672,761.0,,CA,CA-AB,Fort Chipewyan,YPY
1862,CYPZ,medium_airport,Burns Lake Airport,54.3764,-125.950996,2343.0,,CA,CA-BC,Burns Lake,YPZ
1863,CYQA,medium_airport,Muskoka Airport,44.974700927734375,-79.30329895019531,925.0,,CA,CA-ON,Muskoka,YQA
1864,CYQB,large_airport,Quebec Jean Lesage International Airport,46.7911,-71.393303,244.0,,CA,CA-QC,Quebec,YQB
1865,CYQD,medium_airport,The Pas Airport,53.97140121459961,-101.09100341796876,887.0,,CA,CA-MB,The Pas,YQD
1866,CYQF,medium_airport,Red Deer Regional Airport,52.182201,-113.893997,2968.0,,CA,CA-AB,Springbrook,YQF
1867,CYQG,medium_airport,Windsor Airport,42.27560043334961,-82.95559692382812,622.0,,CA,CA-ON,Windsor,YQG
1868,CYQH,medium_airport,Watson Lake Airport,60.11640167236328,-128.82200622558594,2255.0,,CA,CA-YT,Watson Lake,YQH
1869,CYQI,medium_airport,Yarmouth Airport,43.82690048217773,-66.08809661865234,141.0,,CA,CA-NS,Yarmouth,YQI
1870,CYQK,medium_airport,Kenora Airport,49.78829956054688,-94.36309814453124,1332.0,,CA,CA-ON,Kenora,YQK
1871,CYQL,medium_airport,Lethbridge County Airport,49.6302986145,-112.800003052,3048.0,,CA,CA-AB,Lethbridge,YQL
1872,CYQM,medium_airport,Greater Moncton Roméo LeBlanc International Airport,46.112202,-64.678596,232.0,,CA,CA-NB,Moncton,YQM
1873,CYQN,medium_airport,Nakina Airport,50.18280029296875,-86.69640350341797,1057.0,,CA,CA-ON,Nakina,YQN
1874,CYQQ,medium_airport,Comox Valley Airport / CFB Comox,49.7108,-124.887001,84.0,,CA,CA-BC,Comox,YQQ
1875,CYQR,medium_airport,Regina International Airport,50.43190002441406,-104.66600036621094,1894.0,,CA,CA-SK,Regina,YQR
1876,CYQS,medium_airport,St Thomas Municipal Airport,42.77000045776367,-81.11080169677734,778.0,,CA,CA-ON,St Thomas,YQS
1877,CYQT,medium_airport,Thunder Bay Airport,48.37189865112305,-89.32389831542969,653.0,,CA,CA-ON,Thunder Bay,YQT
1878,CYQU,medium_airport,Grande Prairie Airport,55.1796989441,-118.885002136,2195.0,,CA,CA-AB,Grande Prairie,YQU
1879,CYQV,medium_airport,Yorkton Municipal Airport,51.26470184326172,-102.46199798583984,1635.0,,CA,CA-SK,Yorkton,YQV
1880,CYQW,medium_airport,North Battleford Airport,52.769409,-108.243742,1799.0,,CA,CA-SK,North Battleford,YQW
1881,CYQX,medium_airport,Gander International Airport / CFB Gander,48.936258,-54.567719,496.0,,CA,CA-NL,Gander,YQX
1882,CYQY,medium_airport,Sydney / J.A. Douglas McCurdy Airport,46.1614,-60.047798,203.0,,CA,CA-NS,Sydney,YQY
1883,CYQZ,medium_airport,Quesnel Airport,53.026100158691406,-122.51000213623048,1789.0,,CA,CA-BC,Quesnel,YQZ
1884,CYRA,medium_airport,Rae Lakes Airport,64.11609649658203,-117.30999755859376,723.0,,CA,CA-NT,Gamètì,YRA
1885,CYRB,medium_airport,Resolute Bay Airport,74.7169036865,-94.9693984985,215.0,,CA,CA-NU,Resolute Bay,YRB
1887,CYRI,medium_airport,Rivière-du-Loup Airport,47.76440048217773,-69.58470153808594,427.0,,CA,CA-QC,Rivière-du-Loup,YRI
1888,CYRJ,medium_airport,Roberval Airport,48.52000045776367,-72.2656021118164,586.0,,CA,CA-QC,Roberval,YRJ
1889,CYRL,medium_airport,Red Lake Airport,51.06689834594727,-93.79309844970705,1265.0,,CA,CA-ON,Red Lake,YRL
1890,CYRM,small_airport,Rocky Mountain House Airport,52.4296989441,-114.903999329,3244.0,,CA,CA-AB,Rocky Mountain House,YRM
1891,CYRO,medium_airport,Ottawa / Rockcliffe Airport,45.4603004456,-75.64610290530001,188.0,,CA,CA-ON,Ottawa,YRO
1893,CYRQ,medium_airport,Trois-Rivières Airport,46.35279846191406,-72.67939758300781,199.0,,CA,CA-QC,Trois-Rivières,YRQ
1894,CYRS,medium_airport,Red Sucker Lake Airport,54.16719818115234,-93.55719757080078,729.0,,CA,CA-MB,Red Sucker Lake,YRS
1895,CYRT,medium_airport,Rankin Inlet Airport,62.8114013672,-92.1157989502,94.0,,CA,CA-NU,Rankin Inlet,YRT
1896,CYRV,medium_airport,Revelstoke Airport,50.962245,-118.184258,1459.0,,CA,CA-BC,Revelstoke,YRV
1897,CYSB,medium_airport,Sudbury Airport,46.625,-80.79889678955078,1141.0,,CA,CA-ON,Sudbury,YSB
1898,CYSC,medium_airport,Sherbrooke Airport,45.438599,-71.691399,792.0,,CA,CA-QC,Sherbrooke,YSC
1899,CYSD,heliport,Suffield Heliport,50.266700744628906,-111.18299865722656,2525.0,,CA,CA-AB,Suffield,YSD
1900,CYSE,small_airport,Squamish Airport,49.7817001343,-123.162002563,171.0,,CA,CA-BC,Squamish,YSE
1901,CYSF,medium_airport,Stony Rapids Airport,59.250301361083984,-105.84100341796876,805.0,,CA,CA-SK,Stony Rapids,YSF
1903,CYSH,medium_airport,Smiths Falls-Montague (Russ Beach) Airport,44.945801,-75.940598,416.0,,CA,CA-ON,Smiths Falls,YSH
1904,CYSJ,medium_airport,Saint John Airport,45.31610107421875,-65.89029693603516,357.0,,CA,CA-NB,Saint John,YSJ
1905,CYSK,medium_airport,Sanikiluaq Airport,56.5377998352,-79.2466964722,104.0,,CA,CA-NU,Sanikiluaq,YSK
1906,CYSL,medium_airport,Saint-Léonard Airport,47.157097,-67.836242,793.0,,CA,CA-NB,Saint-Léonard,YSL
1907,CYSM,medium_airport,Fort Smith Airport,60.020302,-111.961998,671.0,,CA,CA-NT,Fort Smith,YSM
1908,CYSN,medium_airport,Niagara District Airport,43.19169998168945,-79.17169952392578,321.0,,CA,CA-ON,St Catharines,YCM
1909,CYSP,medium_airport,Marathon Airport,48.75529861450195,-86.34439849853516,1035.0,,CA,CA-ON,Marathon,YSP
1912,CYST,medium_airport,St. Theresa Point Airport,53.84560012817383,-94.85189819335938,773.0,,CA,CA-MB,St. Theresa Point,YST
1913,CYSU,medium_airport,Summerside Airport,46.440601,-63.833599,56.0,,CA,CA-PE,Slemon Park,YSU
1915,CYSY,medium_airport,Sachs Harbour (David Nasogaluak Jr. Saaryuaq) Airport,71.9938964844,-125.242996216,282.0,,CA,CA-NT,Sachs Harbour,YSY
1917,CYTA,medium_airport,Pembroke Airport,45.86439895629883,-77.25170135498047,529.0,,CA,CA-ON,Pembroke,YTA
1918,CYTE,medium_airport,Cape Dorset Airport,64.230003,-76.526703,164.0,,CA,CA-NU,Kinngait,YTE
1919,CYTF,medium_airport,Alma Airport,48.50889968869999,-71.64189910889999,445.0,,CA,CA-QC,Alma,YTF
1920,CYTH,medium_airport,Thompson Airport,55.80110168457031,-97.86419677734376,729.0,,CA,CA-MB,Thompson,YTH
1921,CYTL,medium_airport,Big Trout Lake Airport,53.81779861450195,-89.89689636230469,729.0,,CA,CA-ON,Big Trout Lake,YTL
1923,CYTQ,medium_airport,Tasiujaq Airport,58.66780090332031,-69.95580291748047,122.0,,CA,CA-QC,Tasiujaq,YTQ
1924,CYTR,medium_airport,CFB Trenton,44.118900299072266,-77.5280990600586,283.0,,CA,CA-ON,Trenton,YTR
1925,CYTS,medium_airport,Timmins/Victor M. Power,48.5696983337,-81.376701355,967.0,,CA,CA-ON,Timmins,YTS
1926,CYTZ,medium_airport,Billy Bishop Toronto City Centre Airport,43.627499,-79.396202,252.0,,CA,CA-ON,Toronto,YTZ
1927,CYUB,medium_airport,Tuktoyaktuk / James Gruben Airport,69.433296,-133.026001,15.0,,CA,CA-NT,Tuktoyaktuk,YUB
1928,CYUL,large_airport,Montreal / Pierre Elliott Trudeau International Airport,45.4706001282,-73.7407989502,118.0,,CA,CA-QC,Montréal,YUL
1929,CYUT,medium_airport,Naujaat Airport,66.5214,-86.224701,80.0,,CA,CA-NU,Repulse Bay,YUT
1930,CYUX,medium_airport,Hall Beach Airport,68.7761,-81.2425,30.0,,CA,CA-NU,Sanirajak,YUX
1931,CYUY,medium_airport,Rouyn Noranda Airport,48.20610046386719,-78.83560180664062,988.0,,CA,CA-QC,Rouyn-Noranda,YUY
1932,CYVB,medium_airport,Bonaventure Airport,48.071098,-65.460297,123.0,,CA,CA-QC,Bonaventure,YVB
1933,CYVC,medium_airport,La Ronge Airport,55.1514015198,-105.262001038,1242.0,,CA,CA-SK,La Ronge,YVC
1935,CYVG,small_airport,Vermilion Airport,53.3558006287,-110.823997498,2025.0,,CA,CA-AB,Vermilion,YVG
1936,CYVK,medium_airport,Vernon Airport,50.24810028076172,-119.33100128173828,1140.0,,CA,CA-BC,Vernon,YVE
314953,CYVL,small_airport,Tommy Kochon Airport,67.02,-126.126,870.0,,CA,CA-NT,Colville Lake,YCK
1937,CYVM,medium_airport,Qikiqtarjuaq Airport,67.546232,-64.031754,21.0,,CA,CA-NU,Qikiqtarjuaq,YVM
1938,CYVO,medium_airport,Val-d'Or Airport,48.0532989502,-77.7827987671,1107.0,,CA,CA-QC,Val-d'Or,YVO
1939,CYVP,medium_airport,Kuujjuaq Airport,58.096099853515625,-68.4269027709961,129.0,,CA,CA-QC,Kuujjuaq,YVP
1940,CYVQ,medium_airport,Norman Wells Airport,65.28160095214844,-126.7979965209961,238.0,,CA,CA-NT,Norman Wells,YVQ
1941,CYVR,large_airport,Vancouver International Airport,49.193901062,-123.183998108,14.0,,CA,CA-BC,Vancouver,YVR
1942,CYVT,small_airport,Buffalo Narrows Airport,55.8418998718,-108.417999268,1423.0,,CA,CA-SK,Buffalo Narrows,YVT
1943,CYVV,medium_airport,Wiarton Airport,44.7458,-81.107201,729.0,,CA,CA-ON,Wiarton,YVV
1944,CYVZ,medium_airport,Deer Lake Airport,52.655799865722656,-94.0614013671875,1092.0,,CA,CA-ON,Deer Lake,YVZ
1945,CYWA,medium_airport,Petawawa Airport,45.95220184326172,-77.31919860839844,427.0,,CA,CA-ON,Petawawa,YWA
1946,CYWG,large_airport,Winnipeg / James Armstrong Richardson International Airport,49.9099998474,-97.2398986816,783.0,,CA,CA-MB,Winnipeg,YWG
1947,CYWH,seaplane_base,Victoria Harbour Seaplane Base,48.423782,-123.37198,,,CA,CA-BC,Victoria,YWH
1948,CYWJ,medium_airport,Déline Airport,65.21109771728516,-123.43599700927734,703.0,,CA,CA-NT,Déline,YWJ
1949,CYWK,medium_airport,Wabush Airport,52.92190170288086,-66.8644027709961,1808.0,,CA,CA-NL,Wabush,YWK
1950,CYWL,medium_airport,Williams Lake Airport,52.1831016541,-122.054000854,3085.0,,CA,CA-BC,Williams Lake,YWL
1952,CYWP,medium_airport,Webequie Airport,52.9593933975,-87.3748683929,685.0,,CA,CA-ON,Webequie,YWP
1954,CYWY,medium_airport,Wrigley Airport,63.20940017700195,-123.43699645996094,489.0,,CA,CA-NT,Wrigley,YWY
1955,CYXC,medium_airport,Cranbrook/Canadian Rockies International Airport,49.610801696777,-115.78199768066,3082.0,,CA,CA-BC,Cranbrook,YXC
1957,CYXE,medium_airport,Saskatoon John G. Diefenbaker International Airport,52.17079925537109,-106.6999969482422,1653.0,,CA,CA-SK,Saskatoon,YXE
1958,CYXH,medium_airport,Medicine Hat Regional Airport,50.018902,-110.721001,2352.0,,CA,CA-AB,Medicine Hat,YXH
1959,CYXJ,medium_airport,Fort St John Airport,56.238098,-120.739998,2280.0,,CA,CA-BC,Fort St.John,YXJ
1960,CYXK,medium_airport,Rimouski Airport,48.47809982299805,-68.49690246582031,82.0,,CA,CA-QC,Rimouski,YXK
1961,CYXL,medium_airport,Sioux Lookout Airport,50.11389923095703,-91.9052963256836,1258.0,,CA,CA-ON,Sioux Lookout,YXL
1962,CYXN,medium_airport,Whale Cove Airport,62.24000167849999,-92.5980987549,40.0,,CA,CA-NU,Whale Cove,YXN
1963,CYXP,medium_airport,Pangnirtung Airport,66.1449966431,-65.71360015869999,75.0,,CA,CA-NU,Pangnirtung,YXP
1964,CYXQ,medium_airport,Beaver Creek Airport,62.410301208496094,-140.86700439453125,2131.0,,CA,CA-YT,Beaver Creek,YXQ
1965,CYXR,medium_airport,Earlton (Timiskaming Regional) Airport,47.6974006546,-79.8473453522,800.0,,CA,CA-ON,Earlton,YXR
1966,CYXS,medium_airport,Prince George Airport,53.8894004822,-122.679000854,2267.0,,CA,CA-BC,Prince George,YXS
1967,CYXT,medium_airport,Northwest Regional Airport Terrace-Kitimat,54.468498,-128.576009,713.0,,CA,CA-BC,Terrace,YXT
1968,CYXU,medium_airport,London Airport,43.035599,-81.1539,912.0,,CA,CA-ON,London,YXU
1969,CYXX,large_airport,Abbotsford International Airport,49.025299,-122.361,195.0,,CA,CA-BC,Abbotsford,YXX
1970,CYXY,medium_airport,Whitehorse / Erik Nielsen International Airport,60.709599,-135.067001,2317.0,,CA,CA-YT,Whitehorse,YXY
1971,CYXZ,medium_airport,Wawa Airport,47.96670150756836,-84.78669738769531,942.0,,CA,CA-ON,Wawa,YXZ
1972,CYYB,medium_airport,North Bay Jack Garland Airport,46.363602,-79.422798,1215.0,,CA,CA-ON,North Bay,YYB
1973,CYYC,large_airport,Calgary International Airport,51.113899231,-114.019996643,3557.0,,CA,CA-AB,Calgary,YYC
1974,CYYD,medium_airport,Smithers Airport,54.82469940185547,-127.18299865722656,1712.0,,CA,CA-BC,Smithers,YYD
1975,CYYE,medium_airport,Fort Nelson Airport,58.8363990784,-122.597000122,1253.0,,CA,CA-BC,Fort Nelson,YYE
1976,CYYF,medium_airport,Penticton Airport,49.46310043334961,-119.60199737548828,1129.0,,CA,CA-BC,Penticton,YYF
1977,CYYG,medium_airport,Charlottetown Airport,46.290000915527344,-63.12110137939453,160.0,,CA,CA-PE,Charlottetown,YYG
1978,CYYH,medium_airport,Taloyoak Airport,69.5467,-93.576698,92.0,,CA,CA-NU,Taloyoak,YYH
1979,CYYJ,large_airport,Victoria International Airport,48.6469,-123.426003,63.0,,CA,CA-BC,Victoria,YYJ
1980,CYYL,medium_airport,Lynn Lake Airport,56.86389923095703,-101.07599639892578,1170.0,,CA,CA-MB,Lynn Lake,YYL
1981,CYYM,small_airport,Cowley Airport,49.6363983154,-114.09400177,3876.0,,CA,CA-AB,Cowley,YYM
1982,CYYN,medium_airport,Swift Current Airport,50.2919006348,-107.691001892,2680.0,,CA,CA-SK,Swift Current,YYN
1984,CYYQ,medium_airport,Churchill Airport,58.739200592041016,-94.06500244140624,94.0,,CA,CA-MB,Churchill,YYQ
1985,CYYR,medium_airport,Goose Bay Airport,53.3191986084,-60.4258003235,160.0,,CA,CA-NL,Goose Bay,YYR
1986,CYYT,large_airport,St. John's International Airport,47.618598938,-52.7518997192,461.0,,CA,CA-NL,St. John's,YYT
1987,CYYU,medium_airport,Kapuskasing Airport,49.41389846801758,-82.46749877929688,743.0,,CA,CA-ON,Kapuskasing,YYU
1988,CYYW,medium_airport,Armstrong Airport,50.29029846191406,-88.90969848632812,1058.0,,CA,CA-ON,Armstrong,YYW
1989,CYYY,medium_airport,Mont Joli Airport,48.60860061645508,-68.20809936523438,172.0,,CA,CA-QC,Mont-Joli,YYY
1990,CYYZ,large_airport,Lester B. Pearson International Airport,43.6772003174,-79.63059997559999,569.0,,CA,CA-ON,Toronto,YYZ
1992,CYZE,medium_airport,Gore Bay Manitoulin Airport,45.8853,-82.567802,623.0,,CA,CA-ON,Gore Bay,YZE
1993,CYZF,medium_airport,Yellowknife International Airport,62.462799,-114.440002,675.0,,CA,CA-NT,Yellowknife,YZF
1994,CYZG,medium_airport,Salluit Airport,62.17940139770508,-75.66719818115234,743.0,,CA,CA-QC,Salluit,YZG
1995,CYZH,medium_airport,Slave Lake Airport,55.2930984497,-114.777000427,1912.0,,CA,CA-AB,Slave Lake,YZH
1996,CYZP,medium_airport,Sandspit Airport,53.25429916379999,-131.813995361,21.0,,CA,CA-BC,Sandspit,YZP
1997,CYZR,medium_airport,Chris Hadfield Airport,42.9994010925293,-82.30889892578125,594.0,,CA,CA-ON,Sarnia,YZR
1998,CYZS,medium_airport,Coral Harbour Airport,64.1932983398,-83.3593978882,210.0,,CA,CA-NU,Coral Harbour,YZS
